{"countrySubdivisionJSON?lat=52.82669428900052&lng=-6.936200398950177&level=4":{"distance":0,"adminCode1":"L","countryName":"Ireland","countryCode":"IE","codes":[{"code":"L","type":"ISO3166-2"}],"adminName1":"Leinster"},"findNearbyPlaceNameJSON?lat=52.82669428900052&lng=-6.936200398950177&radius=50":{"geonames":[{"countryId":"2963597","adminCode1":"L","countryName":"Ireland","fclName":"city, village,...","countryCode":"IE","lng":"-6.92611","fcodeName":"seat of a second-order administrative division","distance":"1.71407","toponymName":"Carlow","fcl":"P","name":"Carlow","fcode":"PPLA2","geonameId":2965768,"lat":"52.84083","adminName1":"Leinster","population":20055},{"countryId":"2963597","adminCode1":"L","countryName":"Ireland","fclName":"city, village,...","countryCode":"IE","lng":"-6.95833","fcodeName":"populated place","distance":"1.7388","toponymName":"Graigue","fcl":"P","name":"Graigue","fcode":"PPL","geonameId":2963910,"lat":"52.83472","adminName1":"Leinster","population":0},{"countryId":"2963597","adminCode1":"L","countryName":"Ireland","fclName":"city, village,...","countryCode":"IE","lng":"-6.97306","fcodeName":"populated place","distance":"2.51125","toponymName":"Crockaun","fcl":"P","name":"Crockaun","fcode":"PPL","geonameId":2965020,"lat":"52.83","adminName1":"Leinster","population":0},{"countryId":"2963597","adminCode1":"L","countryName":"Ireland","fclName":"city, village,...","countryCode":"IE","lng":"-6.97167","fcodeName":"populated place","distance":"3.12051","toponymName":"Sleatygraigue","fcl":"P","name":"Sleatygraigue","fcode":"PPL","geonameId":2961445,"lat":"52.84472","adminName1":"Leinster","population":0},{"countryId":"2963597","adminCode1":"L","countryName":"Ireland","fclName":"city, village,...","countryCode":"IE","lng":"-6.87766","fcodeName":"populated place","distance":"3.97275","toponymName":"Kernanstown","fcl":"P","name":"Kernanstown","fcode":"PPL","geonameId":8644027,"lat":"52.82257","adminName1":"Leinster","population":221},{"countryId":"2963597","countryName":"Ireland","fclName":"city, village,...","countryCode":"IE","lng":"-6.89555","fcodeName":"populated place","distance":"4.23121","toponymName":"Tinryland","fcl":"P","name":"Tinryland","fcode":"PPL","geonameId":7869924,"lat":"52.79773","adminName1":"","population":418},{"countryId":"2963597","adminCode1":"L","countryName":"Ireland","fclName":"city, village,...","countryCode":"IE","lng":"-7.00583","fcodeName":"populated place","distance":"4.75276","toponymName":"Rossmore","fcl":"P","name":"Rossmore","fcode":"PPL","geonameId":2961681,"lat":"52.82","adminName1":"Leinster","population":0},{"countryId":"2963597","adminCode1":"L","countryName":"Ireland","fclName":"city, village,...","countryCode":"IE","lng":"-7.00306","fcodeName":"populated place","distance":"4.91949","toponymName":"Killeshin","fcl":"P","name":"Killeshin","fcode":"PPL","geonameId":2963335,"lat":"52.84444","adminName1":"Leinster","population":0},{"countryId":"2963597","adminCode1":"L","countryName":"Ireland","fclName":"city, village,...","countryCode":"IE","lng":"-6.87444","fcodeName":"populated place","distance":"5.03868","toponymName":"Ballylennon Cross Roads","fcl":"P","name":"Ballylennon Cross Roads","fcode":"PPL","geonameId":3303613,"lat":"52.85222","adminName1":"Leinster","population":0},{"countryId":"2963597","adminCode1":"L","countryName":"Ireland","fclName":"city, village,...","countryCode":"IE","lng":"-6.85972","fcodeName":"populated place","distance":"5.34604","toponymName":"Ashlane Cross Roads","fcl":"P","name":"Ashlane Cross Roads","fcode":"PPL","geonameId":3303609,"lat":"52.83944","adminName1":"Leinster","population":0}]},"countrySubdivisionJSON?lat=52.985457&lng=-6.046557&level=4":{"distance":0,"adminCode1":"L","countryName":"Ireland","countryCode":"IE","codes":[{"code":"L","type":"ISO3166-2"}],"adminName1":"Leinster"},"findNearbyPlaceNameJSON?lat=52.985457&lng=-6.046557&radius=50":{"geonames":[{"countryId":"2963597","adminCode1":"L","countryName":"Ireland","fclName":"city, village,...","countryCode":"IE","lng":"-6.04944","fcodeName":"seat of a second-order administrative division","distance":"1.17976","toponymName":"Wicklow","fcl":"P","name":"Wicklow","fcode":"PPLA2","geonameId":2960936,"lat":"52.975","adminName1":"Leinster","population":14048},{"countryId":"2963597","adminCode1":"L","countryName":"Ireland","fclName":"city, village,...","countryCode":"IE","lng":"-6.08528","fcodeName":"populated place","distance":"2.66154","toponymName":"Rathnew","fcl":"P","name":"Rathnew","fcode":"PPL","geonameId":2961884,"lat":"52.99056","adminName1":"Leinster","population":2964},{"countryId":"2963597","adminCode1":"L","countryName":"Ireland","fclName":"city, village,...","countryCode":"IE","lng":"-6.05389","fcodeName":"populated place","distance":"3.0279","toponymName":"Ballyguile","fcl":"P","name":"Ballyguile","fcode":"PPL","geonameId":3314981,"lat":"52.95861","adminName1":"Leinster","population":0},{"countryId":"2963597","adminCode1":"L","countryName":"Ireland","fclName":"city, village,...","countryCode":"IE","lng":"-6.085","fcodeName":"populated locality","distance":"3.1142","toponymName":"Newrath Bridge","fcl":"P","name":"Newrath Bridge","fcode":"PPLL","geonameId":3314987,"lat":"53.00111","adminName1":"Leinster","population":0},{"countryId":"2963597","adminCode1":"L","countryName":"Ireland","fclName":"city, village,...","countryCode":"IE","lng":"-6.01944","fcodeName":"populated place","distance":"3.71243","toponymName":"Dunbur","fcl":"P","name":"Dunbur","fcode":"PPL","geonameId":3314982,"lat":"52.95639","adminName1":"Leinster","population":0},{"countryId":"2963597","adminCode1":"L","countryName":"Ireland","fclName":"city, village,...","countryCode":"IE","lng":"-6.0925","fcodeName":"populated place","distance":"3.74534","toponymName":"Hawkstown","fcl":"P","name":"Hawkstown","fcode":"PPL","geonameId":3314984,"lat":"52.96639","adminName1":"Leinster","population":0},{"countryId":"2963597","adminCode1":"L","countryName":"Ireland","fclName":"city, village,...","countryCode":"IE","lng":"-6.09889","fcodeName":"populated place","distance":"4.55411","toponymName":"Ballinaclogh","fcl":"P","name":"Ballinaclogh","fcode":"PPL","geonameId":3314983,"lat":"52.95944","adminName1":"Leinster","population":0},{"countryId":"2963597","adminCode1":"L","countryName":"Ireland","fclName":"city, village,...","countryCode":"IE","lng":"-6.10889","fcodeName":"populated place","distance":"4.62091","toponymName":"Ballinalea","fcl":"P","name":"Ballinalea","fcode":"PPL","geonameId":2966765,"lat":"53.00306","adminName1":"Leinster","population":0},{"countryId":"2963597","adminCode1":"L","countryName":"Ireland","fclName":"city, village,...","countryCode":"IE","lng":"-6.11694","fcodeName":"populated place","distance":"4.82783","toponymName":"Ballynabarny","fcl":"P","name":"Ballynabarny","fcode":"PPL","geonameId":3314985,"lat":"52.97667","adminName1":"Leinster","population":0},{"countryId":"2963597","adminCode1":"L","countryName":"Ireland","fclName":"city, village,...","countryCode":"IE","lng":"-6.11139","fcodeName":"populated place","distance":"5.04274","toponymName":"Ashford","fcl":"P","name":"Ashford","fcode":"PPL","geonameId":3315010,"lat":"53.00833","adminName1":"Leinster","population":1449}]},"countrySubdivisionJSON?lat=53.32733018004134&lng=-6.2671893135222945&level=4":{"distance":0,"adminCode1":"L","countryName":"Ireland","countryCode":"IE","codes":[{"code":"L","type":"ISO3166-2"}],"adminName1":"Leinster"},"findNearbyPlaceNameJSON?lat=53.32733018004134&lng=-6.2671893135222945&radius=50":{"geonames":[{"countryId":"2963597","countryName":"Ireland","fclName":"city, village,...","countryCode":"IE","lng":"-6.26435","fcodeName":"populated place","distance":"0.35712","toponymName":"Portobello","fcl":"P","name":"Portobello","fcode":"PPL","geonameId":7870000,"lat":"53.33005","adminName1":"","population":0},{"countryId":"2963597","adminCode1":"L","countryName":"Ireland","fclName":"city, village,...","countryCode":"IE","lng":"-6.27538","fcodeName":"populated place","distance":"0.55696","toponymName":"Harold's Cross","fcl":"P","name":"Harold's Cross","fcode":"PPL","geonameId":3315320,"lat":"53.32634","adminName1":"Leinster","population":0},{"countryId":"2963597","countryName":"Ireland","fclName":"city, village,...","countryCode":"IE","lng":"-6.27528","fcodeName":"populated place","distance":"0.76604","toponymName":"Clanbrassil Street","fcl":"P","name":"Clanbrassil Street","fcode":"PPL","geonameId":7289415,"lat":"53.33222","adminName1":"","population":0},{"countryId":"2963597","adminCode1":"L","countryName":"Ireland","fclName":"city, village,...","countryCode":"IE","lng":"-6.26333","fcodeName":"section of populated place","distance":"0.82586","toponymName":"Rathmines","fcl":"P","name":"Rathmines","fcode":"PPLX","geonameId":2961896,"lat":"53.32028","adminName1":"Leinster","population":11044},{"countryId":"2963597","adminCode1":"L","countryName":"Ireland","fclName":"city, village,...","countryCode":"IE","lng":"-6.25504","fcodeName":"populated place","distance":"0.84165","toponymName":"Ranelagh","fcl":"P","name":"Ranelagh","fcode":"PPL","geonameId":3315295,"lat":"53.32526","adminName1":"Leinster","population":0},{"countryId":"2963597","countryName":"Ireland","fclName":"city, village,...","countryCode":"IE","lng":"-6.27371","fcodeName":"populated place","distance":"0.98314","toponymName":"Lower Clanbrassil","fcl":"P","name":"Lower Clanbrassil","fcode":"PPL","geonameId":7289416,"lat":"53.33526","adminName1":"","population":0},{"countryId":"2963597","countryName":"Ireland","fclName":"city, village,...","countryCode":"IE","lng":"-6.27718","fcodeName":"section of populated place","distance":"1.19106","toponymName":"Warrenmount","fcl":"P","name":"Warrenmount","fcode":"PPLX","geonameId":6691000,"lat":"53.3362","adminName1":"","population":0},{"countryId":"2963597","countryName":"Ireland","fclName":"city, village,...","countryCode":"IE","lng":"-6.26286","fcodeName":"section of populated place","distance":"1.25677","toponymName":"Cowper Downs","fcl":"P","name":"Cowper Downs","fcode":"PPLX","geonameId":6691262,"lat":"53.31634","adminName1":"","population":0},{"countryId":"2963597","adminCode1":"L","countryName":"Ireland","fclName":"city, village,...","countryCode":"IE","lng":"-6.28333","fcodeName":"populated place","distance":"1.26618","toponymName":"Kilmainham","fcl":"P","name":"Kilmainham","fcode":"PPL","geonameId":2963280,"lat":"53.33333","adminName1":"Leinster","population":0},{"countryId":"2963597","adminCode1":"L","countryName":"Ireland","fclName":"city, village,...","countryCode":"IE","lng":"-6.24889","fcodeName":"capital of a political entity","distance":"1.37572","toponymName":"Dublin","fcl":"P","name":"Dublin","fcode":"PPLC","geonameId":2964574,"lat":"53.33306","adminName1":"Leinster","population":1024027}]},"countrySubdivisionJSON?lat=54.18020000000001&lng=-6.339159600000016&level=4":{"adminName2":"Newry and Mourne","adminCode2":"S9","distance":0,"adminCode1":"NIR","countryName":"United Kingdom","countryCode":"GB","codes":[{"code":"NIR","type":"ISO3166-2"}],"adminName1":"Northern Ireland"},"findNearbyPlaceNameJSON?lat=54.18020000000001&lng=-6.339159600000016&radius=50":{"geonames":[{"countryId":"2635167","adminCode1":"NIR","countryName":"United Kingdom","fclName":"city, village,...","countryCode":"GB","lng":"-6.33739","fcodeName":"seat of a second-order administrative division","distance":"0.23004","toponymName":"Newry","fcl":"P","name":"Newry","fcode":"PPLA2","geonameId":2641581,"lat":"54.17841","adminName1":"Northern Ireland","population":27757},{"countryId":"2635167","adminCode1":"NIR","countryName":"United Kingdom","fclName":"city, village,...","countryCode":"GB","lng":"-6.35","fcodeName":"populated place","distance":"3.43527","toponymName":"Cloghoge","fcl":"P","name":"Cloghoge","fcode":"PPL","geonameId":2652802,"lat":"54.15","adminName1":"Northern Ireland","population":0},{"countryId":"2635167","adminCode1":"NIR","countryName":"United Kingdom","fclName":"city, village,...","countryCode":"GB","lng":"-6.39954","fcodeName":"populated place","distance":"4.23758","toponymName":"Bessbrook","fcl":"P","name":"Bessbrook","fcode":"PPL","geonameId":2655813,"lat":"54.19418","adminName1":"Northern Ireland","population":0},{"countryId":"2635167","adminCode1":"NIR","countryName":"United Kingdom","fclName":"city, village,...","countryCode":"GB","lng":"-6.41667","fcodeName":"populated place","distance":"5.28084","toponymName":"Camlough","fcl":"P","name":"Camlough","fcode":"PPL","geonameId":2653918,"lat":"54.16667","adminName1":"Northern Ireland","population":0},{"countryId":"2635167","adminCode1":"NIR","countryName":"United Kingdom","fclName":"city, village,...","countryCode":"GB","lng":"-6.36667","fcodeName":"populated place","distance":"6.18056","toponymName":"Jerrettspuss","fcl":"P","name":"Jerrettspuss","fcode":"PPL","geonameId":2645963,"lat":"54.23333","adminName1":"Northern Ireland","population":0},{"countryId":"2635167","adminCode1":"NIR","countryName":"United Kingdom","fclName":"city, village,...","countryCode":"GB","lng":"-6.23333","fcodeName":"populated place","distance":"7.07303","toponymName":"Mayobridge","fcl":"P","name":"Mayobridge","fcode":"PPL","geonameId":2642873,"lat":"54.16667","adminName1":"Northern Ireland","population":0},{"countryId":"2635167","adminCode1":"NIR","countryName":"United Kingdom","fclName":"city, village,...","countryCode":"GB","lng":"-6.26173","fcodeName":"populated place","distance":"7.34946","toponymName":"Burren","fcl":"P","name":"Burren","fcode":"PPL","geonameId":2654239,"lat":"54.1323","adminName1":"Northern Ireland","population":0},{"countryId":"2635167","adminCode1":"NIR","countryName":"United Kingdom","fclName":"city, village,...","countryCode":"GB","lng":"-6.26667","fcodeName":"populated place","distance":"7.57314","toponymName":"Ardarragh","fcl":"P","name":"Ardarragh","fcode":"PPL","geonameId":2657205,"lat":"54.23333","adminName1":"Northern Ireland","population":0},{"countryId":"2635167","adminCode1":"NIR","countryName":"United Kingdom","fclName":"city, village,...","countryCode":"GB","lng":"-6.38333","fcodeName":"populated place","distance":"7.63813","toponymName":"Meigh","fcl":"P","name":"Meigh","fcode":"PPL","geonameId":2642817,"lat":"54.11667","adminName1":"Northern Ireland","population":0},{"countryId":"2635167","adminCode1":"NIR","countryName":"United Kingdom","fclName":"city, village,...","countryCode":"GB","lng":"-6.45","fcodeName":"populated place","distance":"7.982","toponymName":"Milltown","fcl":"P","name":"Milltown","fcode":"PPL","geonameId":2642495,"lat":"54.15","adminName1":"Northern Ireland","population":0}]},"countrySubdivisionJSON?lat=-6.890139&lng=107.617248&level=4":{"distance":0,"adminCode1":"30","countryName":"Indonesia","countryCode":"ID","codes":[{"code":"30","type":"FIPS10-4"},{"code":"JB","type":"ISO3166-2"}],"adminName1":"West Java"},"findNearbyPlaceNameJSON?lat=-6.890139&lng=107.617248&radius=50":{"geonames":[{"countryId":"1643084","adminCode1":"30","countryName":"Indonesia","fclName":"city, village,...","countryCode":"ID","lng":"107.61472","fcodeName":"populated place","distance":"0.28953","toponymName":"Sekeloa","fcl":"P","name":"Sekeloa","fcode":"PPL","geonameId":1962535,"lat":"-6.88944","adminName1":"West Java","population":0},{"countryId":"1643084","adminCode1":"30","countryName":"Indonesia","fclName":"city, village,...","countryCode":"ID","lng":"107.61472","fcodeName":"populated place","distance":"0.40384","toponymName":"Suryakencana","fcl":"P","name":"Suryakencana","fcode":"PPL","geonameId":6598543,"lat":"-6.89278","adminName1":"West Java","population":0},{"countryId":"1643084","adminCode1":"30","countryName":"Indonesia","fclName":"city, village,...","countryCode":"ID","lng":"107.62222","fcodeName":"populated place","distance":"0.55509","toponymName":"Loasari","fcl":"P","name":"Loasari","fcode":"PPL","geonameId":6598541,"lat":"-6.88944","adminName1":"West Java","population":0},{"countryId":"1643084","adminCode1":"30","countryName":"Indonesia","fclName":"city, village,...","countryCode":"ID","lng":"107.62083","fcodeName":"populated place","distance":"0.61945","toponymName":"Haurpancuh","fcl":"P","name":"Haurpancuh","fcode":"PPL","geonameId":6598542,"lat":"-6.89444","adminName1":"West Java","population":0},{"countryId":"1643084","adminCode1":"30","countryName":"Indonesia","fclName":"city, village,...","countryCode":"ID","lng":"107.61639","fcodeName":"populated place","distance":"0.66727","toponymName":"Tubagusismail","fcl":"P","name":"Tubagusismail","fcode":"PPL","geonameId":6598538,"lat":"-6.88417","adminName1":"West Java","population":0},{"countryId":"1643084","adminCode1":"30","countryName":"Indonesia","fclName":"city, village,...","countryCode":"ID","lng":"107.62222","fcodeName":"populated place","distance":"0.70757","toponymName":"Alamandarealastate","fcl":"P","name":"Alamandarealastate","fcode":"PPL","geonameId":6598540,"lat":"-6.88611","adminName1":"West Java","population":0},{"countryId":"1643084","adminCode1":"30","countryName":"Indonesia","fclName":"city, village,...","countryCode":"ID","lng":"107.61194","fcodeName":"populated place","distance":"0.73621","toponymName":"Lebak Siliwangi","fcl":"P","name":"Lebak Siliwangi","fcode":"PPL","geonameId":6598531,"lat":"-6.88611","adminName1":"West Java","population":0},{"countryId":"1643084","adminCode1":"30","countryName":"Indonesia","fclName":"city, village,...","countryCode":"ID","lng":"107.61444","fcodeName":"populated place","distance":"0.75745","toponymName":"Bagusrangin","fcl":"P","name":"Bagusrangin","fcode":"PPL","geonameId":6598544,"lat":"-6.89639","adminName1":"West Java","population":0},{"countryId":"1643084","adminCode1":"30","countryName":"Indonesia","fclName":"city, village,...","countryCode":"ID","lng":"107.61222","fcodeName":"populated place","distance":"0.81694","toponymName":"Simpang","fcl":"P","name":"Simpang","fcode":"PPL","geonameId":6599122,"lat":"-6.88472","adminName1":"West Java","population":0},{"countryId":"1643084","adminCode1":"30","countryName":"Indonesia","fclName":"city, village,...","countryCode":"ID","lng":"107.6225","fcodeName":"populated place","distance":"0.83414","toponymName":"Tubagusismailestate","fcl":"P","name":"Tubagusismailestate","fcode":"PPL","geonameId":6598539,"lat":"-6.88472","adminName1":"West Java","population":0}]},"countrySubdivisionJSON?lat=53.301094808877714&lng=-8.745310306549072&level=4":{"distance":0,"adminCode1":"C","countryName":"Ireland","countryCode":"IE","codes":[{"code":"C","type":"ISO3166-2"}],"adminName1":"Connaught"},"findNearbyPlaceNameJSON?lat=53.301094808877714&lng=-8.745310306549072&radius=50":{"geonames":[{"countryId":"2963597","adminCode1":"C","countryName":"Ireland","fclName":"city, village,...","countryCode":"IE","lng":"-8.74306","fcodeName":"populated place","distance":"0.54486","toponymName":"Athenry","fcl":"P","name":"Athenry","fcode":"PPL","geonameId":2966843,"lat":"53.29639","adminName1":"Connaught","population":3950},{"countryId":"2963597","adminCode1":"C","countryName":"Ireland","fclName":"city, village,...","countryCode":"IE","lng":"-8.72139","fcodeName":"populated locality","distance":"1.61864","toponymName":"Kingsland","fcl":"P","name":"Kingsland","fcode":"PPLL","geonameId":3312358,"lat":"53.29861","adminName1":"Connaught","population":0},{"countryId":"2963597","adminCode1":"C","countryName":"Ireland","fclName":"city, village,...","countryCode":"IE","lng":"-8.71611","fcodeName":"populated locality","distance":"2.52555","toponymName":"River Village","fcl":"P","name":"River Village","fcode":"PPLL","geonameId":3312360,"lat":"53.31556","adminName1":"Connaught","population":0},{"countryId":"2963597","adminCode1":"C","countryName":"Ireland","fclName":"city, village,...","countryCode":"IE","lng":"-8.71778","fcodeName":"populated place","distance":"3.81136","toponymName":"Montpelier","fcl":"P","name":"Montpelier","fcode":"PPL","geonameId":3312518,"lat":"53.33111","adminName1":"Connaught","population":0},{"countryId":"2963597","adminCode1":"C","countryName":"Ireland","fclName":"city, village,...","countryCode":"IE","lng":"-8.7925","fcodeName":"populated place","distance":"4.47571","toponymName":"Greethill","fcl":"P","name":"Greethill","fcode":"PPL","geonameId":3312369,"lat":"53.2725","adminName1":"Connaught","population":0},{"countryId":"2963597","adminCode1":"C","countryName":"Ireland","fclName":"city, village,...","countryCode":"IE","lng":"-8.68028","fcodeName":"populated place","distance":"4.58252","toponymName":"Ballyboggan","fcl":"P","name":"Ballyboggan","fcode":"PPL","geonameId":3312356,"lat":"53.31444","adminName1":"Connaught","population":0},{"countryId":"2963597","adminCode1":"C","countryName":"Ireland","fclName":"city, village,...","countryCode":"IE","lng":"-8.68472","fcodeName":"populated place","distance":"4.80201","toponymName":"Esker","fcl":"P","name":"Esker","fcode":"PPL","geonameId":3312355,"lat":"53.27778","adminName1":"Connaught","population":0},{"countryId":"2963597","adminCode1":"C","countryName":"Ireland","fclName":"city, village,...","countryCode":"IE","lng":"-8.82","fcodeName":"populated place","distance":"5.60136","toponymName":"Newtown","fcl":"P","name":"Newtown","fcode":"PPL","geonameId":3312515,"lat":"53.32417","adminName1":"Connaught","population":0},{"countryId":"2963597","adminCode1":"C","countryName":"Ireland","fclName":"city, village,...","countryCode":"IE","lng":"-8.81472","fcodeName":"populated place","distance":"5.91148","toponymName":"Ballybackagh","fcl":"P","name":"Ballybackagh","fcode":"PPL","geonameId":3312516,"lat":"53.33417","adminName1":"Connaught","population":0},{"countryId":"2963597","adminCode1":"C","countryName":"Ireland","fclName":"city, village,...","countryCode":"IE","lng":"-8.67833","fcodeName":"populated place","distance":"6.28329","toponymName":"Newcastle","fcl":"P","name":"Newcastle","fcode":"PPL","geonameId":2962280,"lat":"53.34083","adminName1":"Connaught","population":0}]},"countrySubdivisionJSON?lat=52.686139&lng=-7.826085&level=4":{"distance":0,"adminCode1":"M","countryName":"Ireland","countryCode":"IE","codes":[{"code":"M","type":"ISO3166-2"}],"adminName1":"Munster"},"findNearbyPlaceNameJSON?lat=52.686139&lng=-7.826085&radius=50":{"geonames":[{"countryId":"2963597","adminCode1":"M","countryName":"Ireland","fclName":"city, village,...","countryCode":"IE","lng":"-7.80222","fcodeName":"populated place","distance":"1.6799","toponymName":"Thurles","fcl":"P","name":"Thurles","fcode":"PPL","geonameId":2961214,"lat":"52.68194","adminName1":"Munster","population":7588},{"countryId":"2963597","adminCode1":"M","countryName":"Ireland","fclName":"city, village,...","countryCode":"IE","lng":"-7.85222","fcodeName":"populated place","distance":"1.8205","toponymName":"Sheskin","fcl":"P","name":"Sheskin","fcode":"PPL","geonameId":3307522,"lat":"52.68222","adminName1":"Munster","population":0},{"countryId":"2963597","adminCode1":"M","countryName":"Ireland","fclName":"city, village,...","countryCode":"IE","lng":"-7.77889","fcodeName":"populated place","distance":"3.35186","toponymName":"Drish Bridge","fcl":"P","name":"Drish Bridge","fcode":"PPL","geonameId":3307634,"lat":"52.67694","adminName1":"Munster","population":0},{"countryId":"2963597","adminCode1":"M","countryName":"Ireland","fclName":"city, village,...","countryCode":"IE","lng":"-7.80139","fcodeName":"populated place","distance":"3.51043","toponymName":"Rossestown Bridge","fcl":"P","name":"Rossestown Bridge","fcode":"PPL","geonameId":3307889,"lat":"52.71389","adminName1":"Munster","population":0},{"countryId":"2963597","adminCode1":"M","countryName":"Ireland","fclName":"city, village,...","countryCode":"IE","lng":"-7.78861","fcodeName":"populated place","distance":"3.64766","toponymName":"Rossestown","fcl":"P","name":"Rossestown","fcode":"PPL","geonameId":3307890,"lat":"52.70972","adminName1":"Munster","population":0},{"countryId":"2963597","adminCode1":"M","countryName":"Ireland","fclName":"city, village,...","countryCode":"IE","lng":"-7.85639","fcodeName":"populated place","distance":"4.18069","toponymName":"Dovea","fcl":"P","name":"Dovea","fcode":"PPL","geonameId":2964683,"lat":"52.71889","adminName1":"Munster","population":0},{"countryId":"2963597","adminCode1":"M","countryName":"Ireland","fclName":"city, village,...","countryCode":"IE","lng":"-7.87667","fcodeName":"populated place","distance":"4.76106","toponymName":"Beakstown","fcl":"P","name":"Beakstown","fcode":"PPL","geonameId":3306099,"lat":"52.65639","adminName1":"Munster","population":0},{"countryId":"2963597","adminCode1":"M","countryName":"Ireland","fclName":"city, village,...","countryCode":"IE","lng":"-7.90472","fcodeName":"populated place","distance":"5.33019","toponymName":"Ballycahill","fcl":"P","name":"Ballycahill","fcode":"PPL","geonameId":2966655,"lat":"52.68944","adminName1":"Munster","population":0},{"countryId":"2963597","adminCode1":"M","countryName":"Ireland","fclName":"city, village,...","countryCode":"IE","lng":"-7.86667","fcodeName":"populated place","distance":"5.39125","toponymName":"Gortnagowth","fcl":"P","name":"Gortnagowth","fcode":"PPL","geonameId":3306486,"lat":"52.64444","adminName1":"Munster","population":0},{"countryId":"2963597","adminCode1":"M","countryName":"Ireland","fclName":"city, village,...","countryCode":"IE","lng":"-7.86306","fcodeName":"populated place","distance":"5.73906","toponymName":"Holycross","fcl":"P","name":"Holycross","fcode":"PPL","geonameId":2963742,"lat":"52.63972","adminName1":"Munster","population":714}]},"countrySubdivisionJSON?lat=53.833199288362&lng=-7.082411003112838&level=4":{"distance":0,"adminCode1":"U","countryName":"Ireland","countryCode":"IE","codes":[{"code":"U","type":"ISO3166-2"}],"adminName1":"Ulster"},"findNearbyPlaceNameJSON?lat=53.833199288362&lng=-7.082411003112838&radius=50":{"geonames":[{"countryId":"2963597","adminCode1":"U","countryName":"Ireland","fclName":"city, village,...","countryCode":"IE","lng":"-7.07556","fcodeName":"populated place","distance":"0.4578","toponymName":"Virginia","fcl":"P","name":"Virginia","fcode":"PPL","geonameId":2961006,"lat":"53.83389","adminName1":"Ulster","population":2282},{"countryId":"2963597","adminCode1":"U","countryName":"Ireland","fclName":"city, village,...","countryCode":"IE","lng":"-7.08333","fcodeName":"populated place","distance":"1.87094","toponymName":"Lisgrea","fcl":"P","name":"Lisgrea","fcode":"PPL","geonameId":2962910,"lat":"53.85","adminName1":"Ulster","population":0},{"countryId":"2963597","adminCode1":"U","countryName":"Ireland","fclName":"city, village,...","countryCode":"IE","lng":"-7.13472","fcodeName":"populated place","distance":"3.84863","toponymName":"Eighter","fcl":"P","name":"Eighter","fcode":"PPL","geonameId":2964428,"lat":"53.81778","adminName1":"Ulster","population":0},{"countryId":"2963597","adminCode1":"U","countryName":"Ireland","fclName":"city, village,...","countryCode":"IE","lng":"-7.05861","fcodeName":"populated place","distance":"5.26347","toponymName":"Ryefield","fcl":"P","name":"Ryefield","fcode":"PPL","geonameId":2961645,"lat":"53.78806","adminName1":"Ulster","population":0},{"countryId":"2963597","adminCode1":"U","countryName":"Ireland","fclName":"city, village,...","countryCode":"IE","lng":"-7.02944","fcodeName":"populated place","distance":"5.31088","toponymName":"Lisduff","fcl":"P","name":"Lisduff","fcode":"PPL","geonameId":2962916,"lat":"53.79722","adminName1":"Ulster","population":0},{"countryId":"2963597","adminCode1":"U","countryName":"Ireland","fclName":"city, village,...","countryCode":"IE","lng":"-7.05","fcodeName":"populated place","distance":"5.97364","toponymName":"Killinkere","fcl":"P","name":"Killinkere","fcode":"PPL","geonameId":2963322,"lat":"53.88333","adminName1":"Ulster","population":0},{"countryId":"2963597","countryName":"Ireland","fclName":"city, village,...","countryCode":"IE","lng":"-7.18557","fcodeName":"populated place","distance":"6.84389","toponymName":"Castlerahan","fcl":"P","name":"Castlerahan","fcode":"PPL","geonameId":7869930,"lat":"53.82568","adminName1":"","population":0},{"countryId":"2963597","adminCode1":"U","countryName":"Ireland","fclName":"city, village,...","countryCode":"IE","lng":"-7.08639","fcodeName":"populated place","distance":"7.3161","toponymName":"Cargagh","fcl":"P","name":"Cargagh","fcode":"PPL","geonameId":2965777,"lat":"53.89889","adminName1":"Ulster","population":0},{"countryId":"2963597","adminCode1":"U","countryName":"Ireland","fclName":"city, village,...","countryCode":"IE","lng":"-7.20278","fcodeName":"populated place","distance":"8.6891","toponymName":"Ballyjamesduff","fcl":"P","name":"Ballyjamesduff","fcode":"PPL","geonameId":2966550,"lat":"53.86528","adminName1":"Ulster","population":2568},{"countryId":"2963597","adminCode1":"L","countryName":"Ireland","fclName":"city, village,...","countryCode":"IE","lng":"-7.15861","fcodeName":"populated place","distance":"8.79383","toponymName":"Oldcastle","fcl":"P","name":"Oldcastle","fcode":"PPL","geonameId":2962179,"lat":"53.76833","adminName1":"Leinster","population":1384}]},"countrySubdivisionJSON?lat=54.000858&lng=-7.35702&level=4":{"distance":0,"adminCode1":"U","countryName":"Ireland","countryCode":"IE","codes":[{"code":"U","type":"ISO3166-2"}],"adminName1":"Ulster"},"findNearbyPlaceNameJSON?lat=54.000858&lng=-7.35702&radius=50":{"geonames":[{"countryId":"2963597","adminCode1":"U","countryName":"Ireland","fclName":"city, village,...","countryCode":"IE","lng":"-7.36056","fcodeName":"seat of a second-order administrative division","distance":"1.13967","toponymName":"Cavan","fcl":"P","name":"Cavan","fcode":"PPLA2","geonameId":2965535,"lat":"53.99083","adminName1":"Ulster","population":6388},{"countryId":"2963597","adminCode1":"U","countryName":"Ireland","fclName":"city, village,...","countryCode":"IE","lng":"-7.38667","fcodeName":"populated locality","distance":"2.41062","toponymName":"Drumconnick","fcl":"P","name":"Drumconnick","fcode":"PPLL","geonameId":3309533,"lat":"53.98806","adminName1":"Ulster","population":0},{"countryId":"2963597","adminCode1":"U","countryName":"Ireland","fclName":"city, village,...","countryCode":"IE","lng":"-7.36639","fcodeName":"populated place","distance":"3.11921","toponymName":"Daggan","fcl":"P","name":"Daggan","fcode":"PPL","geonameId":3309481,"lat":"54.02833","adminName1":"Ulster","population":0},{"countryId":"2963597","adminCode1":"U","countryName":"Ireland","fclName":"city, village,...","countryCode":"IE","lng":"-7.33167","fcodeName":"populated locality","distance":"3.45346","toponymName":"Cross Forts","fcl":"P","name":"Cross Forts","fcode":"PPLL","geonameId":3309550,"lat":"54.02806","adminName1":"Ulster","population":0},{"countryId":"2963597","adminCode1":"U","countryName":"Ireland","fclName":"city, village,...","countryCode":"IE","lng":"-7.35306","fcodeName":"populated locality","distance":"4.02501","toponymName":"Killyvanny","fcl":"P","name":"Killyvanny","fcode":"PPLL","geonameId":3309553,"lat":"54.03694","adminName1":"Ulster","population":0},{"countryId":"2963597","adminCode1":"U","countryName":"Ireland","fclName":"city, village,...","countryCode":"IE","lng":"-7.29556","fcodeName":"populated locality","distance":"4.0576","toponymName":"Stragelliff","fcl":"P","name":"Stragelliff","fcode":"PPLL","geonameId":3309548,"lat":"53.99667","adminName1":"Ulster","population":0},{"countryId":"2963597","adminCode1":"U","countryName":"Ireland","fclName":"city, village,...","countryCode":"IE","lng":"-7.38333","fcodeName":"populated locality","distance":"4.20702","toponymName":"Lisduff","fcl":"P","name":"Lisduff","fcode":"PPLL","geonameId":3309530,"lat":"53.96639","adminName1":"Ulster","population":0},{"countryId":"2963597","adminCode1":"U","countryName":"Ireland","fclName":"city, village,...","countryCode":"IE","lng":"-7.30528","fcodeName":"populated locality","distance":"4.23317","toponymName":"Cullentragh","fcl":"P","name":"Cullentragh","fcode":"PPLL","geonameId":3309551,"lat":"54.02361","adminName1":"Ulster","population":0},{"countryId":"2963597","adminCode1":"U","countryName":"Ireland","fclName":"city, village,...","countryCode":"IE","lng":"-7.4275","fcodeName":"populated locality","distance":"4.8105","toponymName":"Danesfort","fcl":"P","name":"Danesfort","fcode":"PPLL","geonameId":3309531,"lat":"53.98889","adminName1":"Ulster","population":0},{"countryId":"2963597","adminCode1":"U","countryName":"Ireland","fclName":"city, village,...","countryCode":"IE","lng":"-7.37639","fcodeName":"populated place","distance":"4.83553","toponymName":"Butlersbridge","fcl":"P","name":"Butlers Bridge","fcode":"PPL","geonameId":2965888,"lat":"54.04278","adminName1":"Ulster","population":282}]},"countrySubdivisionJSON?lat=41.880701767465744&lng=-87.62939050422972&level=4":{"adminName2":"Cook County","adminCode2":"031","distance":0,"adminCode1":"IL","countryName":"United States","countryCode":"US","codes":[{"code":"17","type":"FIPS10-4"},{"code":"IL","type":"ISO3166-2"}],"adminName1":"Illinois"},"findNearbyPlaceNameJSON?lat=41.880701767465744&lng=-87.62939050422972&radius=50":{"geonames":[{"countryId":"6252001","adminCode1":"IL","countryName":"United States","fclName":"city, village,...","countryCode":"US","lng":"-87.6333","fcodeName":"section of populated place","distance":"0.49532","toponymName":"Chicago Loop","fcl":"P","name":"Loop","fcode":"PPLX","geonameId":8436065,"lat":"41.88407","adminName1":"Illinois","population":0},{"countryId":"6252001","adminCode1":"IL","countryName":"United States","fclName":"city, village,...","countryCode":"US","lng":"-87.62505","fcodeName":"section of populated place","distance":"0.62587","toponymName":"Fort Dearborn Addition","fcl":"P","name":"Fort Dearborn Addition","fcode":"PPLX","geonameId":4892836,"lat":"41.88531","adminName1":"Illinois","population":0},{"countryId":"6252001","adminCode1":"IL","countryName":"United States","fclName":"city, village,...","countryCode":"US","lng":"-87.62005","fcodeName":"section of populated place","distance":"1.36942","toponymName":"Cityfront Center","fcl":"P","name":"Cityfront Center","fcode":"PPLX","geonameId":4888054,"lat":"41.89087","adminName1":"Illinois","population":0},{"countryId":"6252001","adminCode1":"IL","countryName":"United States","fclName":"city, village,...","countryCode":"US","lng":"-87.61811","fcodeName":"section of populated place","distance":"1.39683","toponymName":"Cityfront Place","fcl":"P","name":"Cityfront Place","fcode":"PPLX","geonameId":4888055,"lat":"41.89003","adminName1":"Illinois","population":0},{"countryId":"6252001","adminCode1":"IL","countryName":"United States","fclName":"city, village,...","countryCode":"US","lng":"-87.62561","fcodeName":"section of populated place","distance":"1.53173","toponymName":"McCormickville","fcl":"P","name":"McCormickville","fcode":"PPLX","geonameId":4901601,"lat":"41.8942","adminName1":"Illinois","population":0},{"countryId":"6252001","adminCode1":"IL","countryName":"United States","fclName":"city, village,...","countryCode":"US","lng":"-87.622","fcodeName":"section of populated place","distance":"1.53468","toponymName":"Streeterville","fcl":"P","name":"Streeterville","fcode":"PPLX","geonameId":4912707,"lat":"41.89337","adminName1":"Illinois","population":0},{"countryId":"6252001","adminCode1":"IL","countryName":"United States","fclName":"city, village,...","countryCode":"US","lng":"-87.622","fcodeName":"section of populated place","distance":"1.53468","toponymName":"Kinzies Addition","fcl":"P","name":"Kinzies Addition","fcode":"PPLX","geonameId":4898614,"lat":"41.89337","adminName1":"Illinois","population":0},{"countryId":"6252001","adminCode1":"IL","countryName":"United States","fclName":"city, village,...","countryCode":"US","lng":"-87.62089","fcodeName":"section of populated place","distance":"1.54632","toponymName":"Shantytown","fcl":"P","name":"Shantytown","fcode":"PPLX","geonameId":4911207,"lat":"41.89309","adminName1":"Illinois","population":0},{"countryId":"6252001","adminCode1":"IL","countryName":"United States","fclName":"city, village,...","countryCode":"US","lng":"-87.63978","fcodeName":"section of populated place","distance":"1.59742","toponymName":"Swede Town","fcl":"P","name":"Swede Town","fcode":"PPLX","geonameId":4913059,"lat":"41.89281","adminName1":"Illinois","population":0},{"countryId":"6252001","adminCode1":"IL","countryName":"United States","fclName":"city, village,...","countryCode":"US","lng":"-87.63978","fcodeName":"section of populated place","distance":"1.59742","toponymName":"Killgubbin","fcl":"P","name":"Killgubbin","fcode":"PPLX","geonameId":4898486,"lat":"41.89281","adminName1":"Illinois","population":0}]},"countrySubdivisionJSON?lat=52.83407687266317&lng=-8.983179879188583&level=4":{"distance":0,"adminCode1":"M","countryName":"Ireland","countryCode":"IE","codes":[{"code":"M","type":"ISO3166-2"}],"adminName1":"Munster"},"findNearbyPlaceNameJSON?lat=52.83407687266317&lng=-8.983179879188583&radius=50":{"geonames":[{"countryId":"2963597","adminCode1":"M","countryName":"Ireland","fclName":"city, village,...","countryCode":"IE","lng":"-8.98639","fcodeName":"seat of a second-order administrative division","distance":"1.08281","toponymName":"Ennis","fcl":"P","name":"Ennis","fcode":"PPLA2","geonameId":2964405,"lat":"52.84361","adminName1":"Munster","population":24427},{"countryId":"2963597","adminCode1":"M","countryName":"Ireland","fclName":"city, village,...","countryCode":"IE","lng":"-8.99833","fcodeName":"populated place","distance":"2.04511","toponymName":"Claureen Bridge","fcl":"P","name":"Claureen Bridge","fcode":"PPL","geonameId":3310509,"lat":"52.85","adminName1":"Munster","population":0},{"countryId":"2963597","adminCode1":"M","countryName":"Ireland","fclName":"city, village,...","countryCode":"IE","lng":"-8.96667","fcodeName":"populated place","distance":"2.34243","toponymName":"Clarecastle","fcl":"P","name":"Clarecastle","fcode":"PPL","geonameId":2965476,"lat":"52.81556","adminName1":"Munster","population":0},{"countryId":"2963597","adminCode1":"M","countryName":"Ireland","fclName":"city, village,...","countryCode":"IE","lng":"-8.99389","fcodeName":"populated place","distance":"2.52636","toponymName":"Drehidnagower Bridge","fcl":"P","name":"Drehidnagower Bridge","fcode":"PPL","geonameId":3310506,"lat":"52.85583","adminName1":"Munster","population":0},{"countryId":"2963597","adminCode1":"M","countryName":"Ireland","fclName":"city, village,...","countryCode":"IE","lng":"-9.01389","fcodeName":"populated place","distance":"4.45685","toponymName":"Newhall Cross Roads","fcl":"P","name":"Newhall Cross Roads","fcode":"PPL","geonameId":3310398,"lat":"52.79861","adminName1":"Munster","population":0},{"countryId":"2963597","adminCode1":"M","countryName":"Ireland","fclName":"city, village,...","countryCode":"IE","lng":"-8.91611","fcodeName":"populated place","distance":"4.52639","toponymName":"Noughaval","fcl":"P","name":"Noughaval","fcode":"PPL","geonameId":3310482,"lat":"52.83194","adminName1":"Munster","population":0},{"countryId":"2963597","adminCode1":"M","countryName":"Ireland","fclName":"city, village,...","countryCode":"IE","lng":"-9.05","fcodeName":"populated place","distance":"4.91553","toponymName":"Mahonburgh Bridge","fcl":"P","name":"Mahonburgh Bridge","fcode":"PPL","geonameId":2962731,"lat":"52.81639","adminName1":"Munster","population":0},{"countryId":"2963597","adminCode1":"M","countryName":"Ireland","fclName":"city, village,...","countryCode":"IE","lng":"-9.01028","fcodeName":"populated place","distance":"5.05006","toponymName":"Carranahingan Bridge","fcl":"P","name":"Carranahingan Bridge","fcode":"PPL","geonameId":3310507,"lat":"52.87639","adminName1":"Munster","population":0},{"countryId":"2963597","adminCode1":"M","countryName":"Ireland","fclName":"city, village,...","countryCode":"IE","lng":"-9.02917","fcodeName":"populated place","distance":"5.25514","toponymName":"Fountain Cross","fcl":"P","name":"Fountain Cross","fcode":"PPL","geonameId":3310508,"lat":"52.87222","adminName1":"Munster","population":0},{"countryId":"2963597","adminCode1":"M","countryName":"Ireland","fclName":"city, village,...","countryCode":"IE","lng":"-8.92167","fcodeName":"populated place","distance":"6.00932","toponymName":"Latoon Bridge","fcl":"P","name":"Latoon Bridge","fcode":"PPL","geonameId":3310392,"lat":"52.795","adminName1":"Munster","population":0}]},"countrySubdivisionJSON?lat=41.01748449999999&lng=-73.84414129999999&level=4":{"adminName2":"Westchester County","adminCode2":"119","distance":0,"adminCode1":"NY","countryName":"United States","countryCode":"US","codes":[{"code":"36","type":"FIPS10-4"},{"code":"NY","type":"ISO3166-2"}],"adminName1":"New York"},"findNearbyPlaceNameJSON?lat=41.01748449999999&lng=-73.84414129999999&radius=50":{"geonames":[{"countryId":"6252001","adminCode1":"NY","countryName":"United States","fclName":"city, village,...","countryCode":"US","lng":"-73.84375","fcodeName":"populated place","distance":"0.75939","toponymName":"Ardsley","fcl":"P","name":"Ardsley","fcode":"PPL","geonameId":5107311,"lat":"41.01065","adminName1":"New York","population":4452},{"countryId":"6252001","adminCode1":"NY","countryName":"United States","fclName":"city, village,...","countryCode":"US","lng":"-73.83458","fcodeName":"populated place","distance":"1.06051","toponymName":"Woodlands","fcl":"P","name":"Woodlands","fcode":"PPL","geonameId":5145046,"lat":"41.02371","adminName1":"New York","population":0},{"countryId":"6252001","adminCode1":"NY","countryName":"United States","fclName":"city, village,...","countryCode":"US","lng":"-73.83569","fcodeName":"populated place","distance":"1.6538","toponymName":"Worthington","fcl":"P","name":"Worthington","fcode":"PPL","geonameId":5145108,"lat":"41.03093","adminName1":"New York","population":0},{"countryId":"6252001","adminCode1":"NY","countryName":"United States","fclName":"city, village,...","countryCode":"US","lng":"-73.84291","fcodeName":"populated place","distance":"1.71231","toponymName":"Greenburgh","fcl":"P","name":"Greenburgh","fcode":"PPL","geonameId":5119347,"lat":"41.03288","adminName1":"New York","population":86764},{"countryId":"6252001","adminCode1":"NY","countryName":"United States","fclName":"city, village,...","countryCode":"US","lng":"-73.85652","fcodeName":"populated place","distance":"1.95401","toponymName":"Chauncey","fcl":"P","name":"Chauncey","fcode":"PPL","geonameId":5112355,"lat":"41.0026","adminName1":"New York","population":0},{"countryId":"6252001","adminCode1":"NY","countryName":"United States","fclName":"city, village,...","countryCode":"US","lng":"-73.87041","fcodeName":"populated place","distance":"2.36585","toponymName":"Ardsley-on-Hudson","fcl":"P","name":"Ardsley-on-Hudson","fcode":"PPL","geonameId":5107317,"lat":"41.0251","adminName1":"New York","population":0},{"countryId":"6252001","adminCode1":"NY","countryName":"United States","fclName":"city, village,...","countryCode":"US","lng":"-73.87264","fcodeName":"populated place","distance":"2.41892","toponymName":"Dobbs Ferry","fcl":"P","name":"Dobbs Ferry","fcode":"PPL","geonameId":5115123,"lat":"41.01454","adminName1":"New York","population":10875},{"countryId":"6252001","adminCode1":"NY","countryName":"United States","fclName":"city, village,...","countryCode":"US","lng":"-73.86823","fcodeName":"populated place","distance":"3.15146","toponymName":"Irvington","fcl":"P","name":"Irvington","fcode":"PPL","geonameId":5122365,"lat":"41.03922","adminName1":"New York","population":6420},{"countryId":"6252001","adminCode1":"NY","countryName":"United States","fclName":"city, village,...","countryCode":"US","lng":"-73.84875","fcodeName":"populated place","distance":"3.36647","toponymName":"East Irvington","fcl":"P","name":"East Irvington","fcode":"PPL","geonameId":5115920,"lat":"41.0476","adminName1":"New York","population":0},{"countryId":"6252001","adminCode1":"NY","countryName":"United States","fclName":"city, village,...","countryCode":"US","lng":"-73.81986","fcodeName":"populated place","distance":"3.38755","toponymName":"Greenville","fcl":"P","name":"Greenville","fcode":"PPL","geonameId":5119405,"lat":"40.99315","adminName1":"New York","population":7116}]},"countrySubdivisionJSON?lat=53.71975&lng=-8.997&level=4":{"distance":0,"adminCode1":"C","countryName":"Ireland","countryCode":"IE","codes":[{"code":"C","type":"ISO3166-2"}],"adminName1":"Connaught"},"findNearbyPlaceNameJSON?lat=53.71975&lng=-8.997&radius=50":{"geonames":[{"countryId":"2963597","adminCode1":"C","countryName":"Ireland","fclName":"city, village,...","countryCode":"IE","lng":"-9","fcodeName":"populated place","distance":"0.39622","toponymName":"Claremorris","fcl":"P","name":"Claremorris","fcode":"PPL","geonameId":2965471,"lat":"53.71667","adminName1":"Connaught","population":3412},{"countryId":"2963597","adminCode1":"C","countryName":"Ireland","fclName":"city, village,...","countryCode":"IE","lng":"-8.95","fcodeName":"populated place","distance":"3.80307","toponymName":"Meelick","fcl":"P","name":"Meelick","fcode":"PPL","geonameId":2962657,"lat":"53.7","adminName1":"Connaught","population":0},{"countryId":"2963597","adminCode1":"C","countryName":"Ireland","fclName":"city, village,...","countryCode":"IE","lng":"-9","fcodeName":"populated place","distance":"4.05803","toponymName":"Crossboyne","fcl":"P","name":"Crossboyne","fcode":"PPL","geonameId":2964992,"lat":"53.68333","adminName1":"Connaught","population":0},{"countryId":"2963597","adminCode1":"C","countryName":"Ireland","fclName":"city, village,...","countryCode":"IE","lng":"-9.03333","fcodeName":"populated place","distance":"4.13333","toponymName":"Ballynastangford","fcl":"P","name":"Ballynastangford","fcode":"PPL","geonameId":2966443,"lat":"53.75","adminName1":"Connaught","population":0},{"countryId":"2963597","adminCode1":"C","countryName":"Ireland","fclName":"city, village,...","countryCode":"IE","lng":"-8.95","fcodeName":"populated place","distance":"4.57772","toponymName":"Barnycarroll","fcl":"P","name":"Barnycarroll","fcode":"PPL","geonameId":2966325,"lat":"53.75","adminName1":"Connaught","population":0},{"countryId":"2963597","adminCode1":"C","countryName":"Ireland","fclName":"city, village,...","countryCode":"IE","lng":"-8.96667","fcodeName":"populated place","distance":"6.23863","toponymName":"Ballindine","fcl":"P","name":"Ballindine","fcode":"PPL","geonameId":2966740,"lat":"53.66667","adminName1":"Connaught","population":350},{"countryId":"2963597","adminCode1":"C","countryName":"Ireland","fclName":"city, village,...","countryCode":"IE","lng":"-8.88333","fcodeName":"populated place","distance":"7.51189","toponymName":"Brickeens","fcl":"P","name":"Brickeens","fcode":"PPL","geonameId":2966009,"lat":"53.71667","adminName1":"Connaught","population":0},{"countryId":"2963597","adminCode1":"C","countryName":"Ireland","fclName":"city, village,...","countryCode":"IE","lng":"-9","fcodeName":"populated place","distance":"7.76564","toponymName":"Scardaun","fcl":"P","name":"Scardaun","fcode":"PPL","geonameId":2961576,"lat":"53.65","adminName1":"Connaught","population":0},{"countryId":"2963597","adminCode1":"C","countryName":"Ireland","fclName":"city, village,...","countryCode":"IE","lng":"-9.11719","fcodeName":"populated place","distance":"9.09627","toponymName":"Mayo","fcl":"P","name":"Mayo","fcode":"PPL","geonameId":2962667,"lat":"53.75977","adminName1":"Connaught","population":0},{"countryId":"2963597","adminCode1":"C","countryName":"Ireland","fclName":"city, village,...","countryCode":"IE","lng":"-8.96667","fcodeName":"populated place","distance":"9.15316","toponymName":"Cloonlavis","fcl":"P","name":"Cloonlavis","fcode":"PPL","geonameId":2965291,"lat":"53.8","adminName1":"Connaught","population":0}]},"countrySubdivisionJSON?lat=48.407545&lng=9.870111&level=4":{"adminCode3":"08425","adminName2":"Tübingen Region","adminName3":"Alb-Donau-Kreis","adminCode2":"084","distance":0,"adminName4":"Blaustein","adminCode1":"01","countryName":"Germany","countryCode":"DE","codes":[{"code":"01","type":"FIPS10-4"},{"code":"BW","type":"ISO3166-2"}],"adminCode4":"08425141","adminName1":"Baden-Württemberg"},"findNearbyPlaceNameJSON?lat=48.407545&lng=9.870111&radius=50":{"geonames":[{"countryId":"2921044","adminCode1":"01","countryName":"Germany","fclName":"city, village,...","countryCode":"DE","lng":"9.88126","fcodeName":"populated place","distance":"1.1869","toponymName":"Arnegg","fcl":"P","name":"Arnegg","fcode":"PPL","geonameId":2955518,"lat":"48.41522","adminName1":"Baden-Württemberg","population":0},{"countryId":"2921044","adminCode1":"01","countryName":"Germany","fclName":"city, village,...","countryCode":"DE","lng":"9.86122","fcodeName":"populated place","distance":"1.37974","toponymName":"Dietingen","fcl":"P","name":"Dietingen","fcode":"PPL","geonameId":2937095,"lat":"48.39664","adminName1":"Baden-Württemberg","population":0},{"countryId":"2921044","adminCode1":"01","countryName":"Germany","fclName":"city, village,...","countryCode":"DE","lng":"9.86001","fcodeName":"populated place","distance":"2.20196","toponymName":"Markbronn","fcl":"P","name":"Markbronn","fcode":"PPL","geonameId":2873430,"lat":"48.38892","adminName1":"Baden-Württemberg","population":0},{"countryId":"2921044","adminCode1":"01","countryName":"Germany","fclName":"city, village,...","countryCode":"DE","lng":"9.86328","fcodeName":"populated place","distance":"2.28429","toponymName":"Wippingen","fcl":"P","name":"Wippingen","fcode":"PPL","geonameId":2807585,"lat":"48.42758","adminName1":"Baden-Württemberg","population":0},{"countryId":"2921044","adminCode1":"01","countryName":"Germany","fclName":"city, village,...","countryCode":"DE","lng":"9.89795","fcodeName":"populated place","distance":"2.53007","toponymName":"Herrlingen","fcl":"P","name":"Herrlingen","fcode":"PPL","geonameId":2905686,"lat":"48.42074","adminName1":"Baden-Württemberg","population":0},{"countryId":"2921044","adminCode1":"01","countryName":"Germany","fclName":"city, village,...","countryCode":"DE","lng":"9.88703","fcodeName":"populated place","distance":"2.79321","toponymName":"Oberherrlingen","fcl":"P","name":"Oberherrlingen","fcode":"PPL","geonameId":2860347,"lat":"48.43","adminName1":"Baden-Württemberg","population":0},{"countryId":"2921044","adminCode1":"01","countryName":"Germany","fclName":"city, village,...","countryCode":"DE","lng":"9.90812","fcodeName":"populated place","distance":"3.06597","toponymName":"Klingenstein","fcl":"P","name":"Klingenstein","fcode":"PPL","geonameId":2887716,"lat":"48.41849","adminName1":"Baden-Württemberg","population":0},{"countryId":"2921044","adminCode1":"01","countryName":"Germany","fclName":"city, village,...","countryCode":"DE","lng":"9.82871","fcodeName":"populated place","distance":"3.12168","toponymName":"Altental","fcl":"P","name":"Altental","fcode":"PPL","geonameId":2957446,"lat":"48.40224","adminName1":"Baden-Württemberg","population":0},{"countryId":"2921044","adminCode1":"01","countryName":"Germany","fclName":"city, village,...","countryCode":"DE","lng":"9.8992","fcodeName":"populated place","distance":"3.63399","toponymName":"Ermingen","fcl":"P","name":"Ermingen","fcode":"PPL","geonameId":2929387,"lat":"48.38122","adminName1":"Baden-Württemberg","population":0},{"countryId":"2921044","adminCode1":"01","countryName":"Germany","fclName":"city, village,...","countryCode":"DE","lng":"9.92014","fcodeName":"populated place","distance":"3.73837","toponymName":"Ehrenstein","fcl":"P","name":"Ehrenstein","fcode":"PPL","geonameId":2932814,"lat":"48.41211","adminName1":"Baden-Württemberg","population":0}]},"countrySubdivisionJSON?lat=46.06079&lng=14.49721999999997&level=4":{"distance":0,"adminCode1":"61","countryName":"Slovenia","countryCode":"SI","codes":[{"code":"61","type":"FIPS10-4"},{"code":"061","type":"ISO3166-2"}],"adminName1":"Ljubljana"},"findNearbyPlaceNameJSON?lat=46.06079&lng=14.49721999999997&radius=50":{"geonames":[{"countryId":"3190538","adminCode1":"61","countryName":"Slovenia","fclName":"city, village,...","countryCode":"SI","lng":"14.5","fcodeName":"section of populated place","distance":"0.68775","toponymName":"Zgornja Šiška","fcl":"P","name":"Zgornja Šiška","fcode":"PPLX","geonameId":3186526,"lat":"46.06667","adminName1":"Ljubljana","population":0},{"countryId":"3190538","adminCode1":"61","countryName":"Slovenia","fclName":"city, village,...","countryCode":"SI","lng":"14.5","fcodeName":"section of populated place","distance":"0.68775","toponymName":"Spodnja Šiška","fcl":"P","name":"Spodnja Šiška","fcode":"PPLX","geonameId":3190235,"lat":"46.06667","adminName1":"Ljubljana","population":0},{"countryId":"3190538","adminCode1":"61","countryName":"Slovenia","fclName":"city, village,...","countryCode":"SI","lng":"14.50513","fcodeName":"capital of a political entity","distance":"1.24115","toponymName":"Ljubljana","fcl":"P","name":"Ljubljana","fcode":"PPLC","geonameId":3196359,"lat":"46.05108","adminName1":"Ljubljana","population":272220},{"countryId":"3190538","adminCode1":"61","countryName":"Slovenia","fclName":"city, village,...","countryCode":"SI","lng":"14.48333","fcodeName":"section of populated place","distance":"1.61037","toponymName":"Vič","fcl":"P","name":"Vič","fcode":"PPLX","geonameId":3187818,"lat":"46.05","adminName1":"Ljubljana","population":0},{"countryId":"3190538","adminCode1":"61","countryName":"Slovenia","fclName":"city, village,...","countryCode":"SI","lng":"14.46667","fcodeName":"populated place","distance":"2.45261","toponymName":"Koseze","fcl":"P","name":"Koseze","fcode":"PPL","geonameId":3197628,"lat":"46.06667","adminName1":"Ljubljana","population":0},{"countryId":"3190538","adminCode1":"61","countryName":"Slovenia","fclName":"city, village,...","countryCode":"SI","lng":"14.48333","fcodeName":"section of populated place","distance":"2.72632","toponymName":"Dravlje","fcl":"P","name":"Dravlje","fcode":"PPLX","geonameId":3201254,"lat":"46.08333","adminName1":"Ljubljana","population":0},{"countryId":"3190538","adminCode1":"61","countryName":"Slovenia","fclName":"city, village,...","countryCode":"SI","lng":"14.47083","fcodeName":"populated place","distance":"2.77475","toponymName":"Kozarje","fcl":"P","name":"Kozarje","fcode":"PPL","geonameId":3197476,"lat":"46.04389","adminName1":"Ljubljana","population":0},{"countryId":"3190538","adminCode1":"61","countryName":"Slovenia","fclName":"city, village,...","countryCode":"SI","lng":"14.51667","fcodeName":"populated place","distance":"2.92268","toponymName":"Stožice","fcl":"P","name":"Stožice","fcode":"PPL","geonameId":3189789,"lat":"46.08333","adminName1":"Ljubljana","population":0},{"countryId":"3190538","adminCode1":"61","countryName":"Slovenia","fclName":"city, village,...","countryCode":"SI","lng":"14.54427","fcodeName":"section of populated place","distance":"3.79753","toponymName":"Štepanjsko naselje","fcl":"P","name":"Štepanjsko naselje","fcode":"PPLX","geonameId":6690438,"lat":"46.05108","adminName1":"Ljubljana","population":0},{"countryId":"3190538","adminCode1":"61","countryName":"Slovenia","fclName":"city, village,...","countryCode":"SI","lng":"14.55","fcodeName":"section of populated place","distance":"4.25687","toponymName":"Moste","fcl":"P","name":"Moste","fcode":"PPLX","geonameId":3194823,"lat":"46.05","adminName1":"Ljubljana","population":0}]},"countrySubdivisionJSON?lat=52.865022223607326&lng=-8.199455103982473&level=4":{"distance":0,"adminCode1":"M","countryName":"Ireland","countryCode":"IE","codes":[{"code":"M","type":"ISO3166-2"}],"adminName1":"Munster"},"findNearbyPlaceNameJSON?lat=52.865022223607326&lng=-8.199455103982473&radius=50":{"geonames":[{"countryId":"2963597","adminCode1":"M","countryName":"Ireland","fclName":"city, village,...","countryCode":"IE","lng":"-8.19667","fcodeName":"seat of a first-order administrative division","distance":"0.39065","toponymName":"Nenagh","fcl":"P","name":"Nenagh","fcode":"PPLA","geonameId":2962304,"lat":"52.86194","adminName1":"Munster","population":5500},{"countryId":"2963597","adminCode1":"M","countryName":"Ireland","fclName":"city, village,...","countryCode":"IE","lng":"-8.19583","fcodeName":"populated place","distance":"1.86825","toponymName":"Nenagh Bridge","fcl":"P","name":"Nenagh Bridge","fcode":"PPL","geonameId":3306439,"lat":"52.88167","adminName1":"Munster","population":6672},{"countryId":"2963597","adminCode1":"M","countryName":"Ireland","fclName":"city, village,...","countryCode":"IE","lng":"-8.1675","fcodeName":"populated place","distance":"2.16959","toponymName":"Gourdeen Bridge","fcl":"P","name":"Gourdeen Bridge","fcode":"PPL","geonameId":3306445,"lat":"52.8675","adminName1":"Munster","population":0},{"countryId":"2963597","adminCode1":"M","countryName":"Ireland","fclName":"city, village,...","countryCode":"IE","lng":"-8.17583","fcodeName":"populated place","distance":"2.58927","toponymName":"Lissatunny","fcl":"P","name":"Lissatunny","fcode":"PPL","geonameId":3306505,"lat":"52.84667","adminName1":"Munster","population":0},{"countryId":"2963597","adminCode1":"M","countryName":"Ireland","fclName":"city, village,...","countryCode":"IE","lng":"-8.15917","fcodeName":"populated place","distance":"3.64825","toponymName":"Rapia Cross Roads","fcl":"P","name":"Rapia Cross Roads","fcode":"PPL","geonameId":3306449,"lat":"52.88694","adminName1":"Munster","population":0},{"countryId":"2963597","adminCode1":"M","countryName":"Ireland","fclName":"city, village,...","countryCode":"IE","lng":"-8.21528","fcodeName":"populated place","distance":"4.10023","toponymName":"Bawn","fcl":"P","name":"Bawn","fcode":"PPL","geonameId":2966294,"lat":"52.82944","adminName1":"Munster","population":0},{"countryId":"2963597","adminCode1":"M","countryName":"Ireland","fclName":"city, village,...","countryCode":"IE","lng":"-8.23611","fcodeName":"populated place","distance":"4.71364","toponymName":"Ballyartello Bridge","fcl":"P","name":"Ballyartello Bridge","fcode":"PPL","geonameId":3306435,"lat":"52.90111","adminName1":"Munster","population":0},{"countryId":"2963597","adminCode1":"M","countryName":"Ireland","fclName":"city, village,...","countryCode":"IE","lng":"-8.19333","fcodeName":"populated place","distance":"4.84235","toponymName":"Kilriffen","fcl":"P","name":"Kilriffen","fcode":"PPL","geonameId":3306498,"lat":"52.82167","adminName1":"Munster","population":0},{"countryId":"2963597","adminCode1":"M","countryName":"Ireland","fclName":"city, village,...","countryCode":"IE","lng":"-8.16111","fcodeName":"populated place","distance":"4.9365","toponymName":"Ballynaclogh","fcl":"P","name":"Ballynaclogh","fcode":"PPL","geonameId":2966480,"lat":"52.82722","adminName1":"Munster","population":0},{"countryId":"2963597","adminCode1":"M","countryName":"Ireland","fclName":"city, village,...","countryCode":"IE","lng":"-8.245","fcodeName":"populated place","distance":"5.58247","toponymName":"Riverview","fcl":"P","name":"Riverview","fcode":"PPL","geonameId":3312827,"lat":"52.90694","adminName1":"Munster","population":0}]},"countrySubdivisionJSON?lat=53.38603486321264&lng=-6.260958624250861&level=4":{"distance":0,"adminCode1":"L","countryName":"Ireland","countryCode":"IE","codes":[{"code":"L","type":"ISO3166-2"}],"adminName1":"Leinster"},"findNearbyPlaceNameJSON?lat=53.38603486321264&lng=-6.260958624250861&radius=50":{"geonames":[{"countryId":"2963597","adminCode1":"L","countryName":"Ireland","fclName":"city, village,...","countryCode":"IE","lng":"-6.26417","fcodeName":"populated place","distance":"0.67535","toponymName":"Glasnevin","fcl":"P","name":"Glasnevin","fcode":"PPL","geonameId":2964102,"lat":"53.38028","adminName1":"Leinster","population":3633},{"countryId":"2963597","adminCode1":"L","countryName":"Ireland","fclName":"city, village,...","countryCode":"IE","lng":"-6.26693","fcodeName":"populated place","distance":"1.39704","toponymName":"Ballymun","fcl":"P","name":"Ballymun","fcode":"PPL","geonameId":3315315,"lat":"53.39807","adminName1":"Leinster","population":6262},{"countryId":"2963597","countryName":"Ireland","fclName":"city, village,...","countryCode":"IE","lng":"-6.24019","fcodeName":"populated place","distance":"1.42263","toponymName":"Whitehall","fcl":"P","name":"Whitehall","fcode":"PPL","geonameId":6691028,"lat":"53.383","adminName1":"","population":0},{"countryId":"2963597","adminCode1":"L","countryName":"Ireland","fclName":"city, village,...","countryCode":"IE","lng":"-6.25268","fcodeName":"populated place","distance":"1.4535","toponymName":"Santry","fcl":"P","name":"Santry","fcode":"PPL","geonameId":2961587,"lat":"53.39812","adminName1":"Leinster","population":0},{"countryId":"2963597","adminCode1":"L","countryName":"Ireland","fclName":"city, village,...","countryCode":"IE","lng":"-6.24056","fcodeName":"populated place","distance":"1.48249","toponymName":"Beaumont","fcl":"P","name":"Beaumont","fcode":"PPL","geonameId":3315311,"lat":"53.39139","adminName1":"Leinster","population":8609},{"countryId":"2963597","adminCode1":"L","countryName":"Ireland","fclName":"city, village,...","countryCode":"IE","lng":"-6.25298","fcodeName":"populated place","distance":"1.80011","toponymName":"Drumcondra","fcl":"P","name":"Drumcondra","fcode":"PPL","geonameId":3315312,"lat":"53.37058","adminName1":"Leinster","population":4465},{"countryId":"2963597","countryName":"Ireland","fclName":"city, village,...","countryCode":"IE","lng":"-6.2683","fcodeName":"section of populated place","distance":"2.15805","toponymName":"Drumcondra","fcl":"P","name":"Drumcondra","fcode":"PPLX","geonameId":6691027,"lat":"53.36715","adminName1":"","population":0},{"countryId":"2963597","adminCode1":"L","countryName":"Ireland","fclName":"city, village,...","countryCode":"IE","lng":"-6.23646","fcodeName":"section of populated place","distance":"2.39922","toponymName":"Marino","fcl":"P","name":"Marino","fcode":"PPLX","geonameId":2962696,"lat":"53.37022","adminName1":"Leinster","population":11023},{"countryId":"2963597","adminCode1":"L","countryName":"Ireland","fclName":"city, village,...","countryCode":"IE","lng":"-6.29694","fcodeName":"populated place","distance":"2.41951","toponymName":"Finglas","fcl":"P","name":"Finglas","fcode":"PPL","geonameId":2964303,"lat":"53.38917","adminName1":"Leinster","population":19768},{"countryId":"2963597","adminCode1":"L","countryName":"Ireland","fclName":"city, village,...","countryCode":"IE","lng":"-6.22806","fcodeName":"populated place","distance":"2.47378","toponymName":"Kilmore","fcl":"P","name":"Kilmore","fcode":"PPL","geonameId":3315310,"lat":"53.39639","adminName1":"Leinster","population":0}]},"countrySubdivisionJSON?lat=36.250581&lng=137.968084&level=4":{"distance":0,"adminCode1":"26","countryName":"Japan","countryCode":"JP","codes":[{"code":"26","type":"FIPS10-4"},{"code":"20","type":"ISO3166-2"}],"adminName1":"Nagano"},"findNearbyPlaceNameJSON?lat=36.250581&lng=137.968084&radius=50":{"geonames":[{"countryId":"1861060","adminCode1":"26","countryName":"Japan","fclName":"city, village,...","countryCode":"JP","lng":"137.96667","fcodeName":"section of populated place","distance":"1.9181","toponymName":"Koyanagichō","fcl":"P","name":"Koyanagichō","fcode":"PPLX","geonameId":1858612,"lat":"36.23333","adminName1":"Nagano","population":0},{"countryId":"1861060","adminCode1":"26","countryName":"Japan","fclName":"city, village,...","countryCode":"JP","lng":"137.96667","fcodeName":"populated place","distance":"1.9181","toponymName":"Matsumoto","fcl":"P","name":"Matsumoto","fcode":"PPL","geonameId":1857519,"lat":"36.23333","adminName1":"Nagano","population":210667},{"countryId":"1861060","adminCode1":"26","countryName":"Japan","fclName":"city, village,...","countryCode":"JP","lng":"137.98658","fcodeName":"populated place","distance":"2.14089","toponymName":"Asama-onsen","fcl":"P","name":"Asama-onsen","fcode":"PPL","geonameId":1865045,"lat":"36.26274","adminName1":"Nagano","population":0},{"countryId":"1861060","adminCode1":"26","countryName":"Japan","fclName":"city, village,...","countryCode":"JP","lng":"137.97979","fcodeName":"populated place","distance":"2.74204","toponymName":"Okadamachi","fcl":"P","name":"Okadamachi","fcode":"PPL","geonameId":8675219,"lat":"36.2734","adminName1":"Nagano","population":0},{"countryId":"1861060","adminCode1":"26","countryName":"Japan","fclName":"city, village,...","countryCode":"JP","lng":"138.00291","fcodeName":"populated locality","distance":"3.16676","toponymName":"Fujii","fcl":"P","name":"Fujii","fcode":"PPLL","geonameId":9115001,"lat":"36.24624","adminName1":"Nagano","population":0},{"countryId":"1861060","adminCode1":"26","countryName":"Japan","fclName":"city, village,...","countryCode":"JP","lng":"137.98622","fcodeName":"populated place","distance":"3.31353","toponymName":"Tsukama","fcl":"P","name":"Tsukama","fcode":"PPL","geonameId":1849711,"lat":"36.22458","adminName1":"Nagano","population":0},{"countryId":"1861060","adminCode1":"26","countryName":"Japan","fclName":"city, village,...","countryCode":"JP","lng":"138.0012","fcodeName":"populated place","distance":"3.52131","toponymName":"Satoyamabe","fcl":"P","name":"Satoyamabe","fcode":"PPL","geonameId":9115002,"lat":"36.23363","adminName1":"Nagano","population":0},{"countryId":"1861060","adminCode1":"26","countryName":"Japan","fclName":"city, village,...","countryCode":"JP","lng":"137.95","fcodeName":"populated place","distance":"4.09938","toponymName":"Sasabe","fcl":"P","name":"Sasabe","fcode":"PPL","geonameId":1852922,"lat":"36.21667","adminName1":"Nagano","population":0},{"countryId":"1861060","adminCode1":"26","countryName":"Japan","fclName":"city, village,...","countryCode":"JP","lng":"137.91807","fcodeName":"populated place","distance":"4.49505","toponymName":"Azusabashi","fcl":"P","name":"Azusabashi","fcode":"PPL","geonameId":1864836,"lat":"36.25036","adminName1":"Nagano","population":0},{"countryId":"1861060","adminCode1":"26","countryName":"Japan","fclName":"city, village,...","countryCode":"JP","lng":"137.91667","fcodeName":"populated place","distance":"5.00236","toponymName":"Komiya","fcl":"P","name":"Komiya","fcode":"PPL","geonameId":1858875,"lat":"36.23333","adminName1":"Nagano","population":0}]},"countrySubdivisionJSON?lat=55.858502&lng=-4.293679999999995&level=4":{"adminName2":"Glasgow City","adminCode2":"V2","distance":0,"adminCode1":"SCT","countryName":"United Kingdom","countryCode":"GB","codes":[{"code":"SCT","type":"ISO3166-2"}],"adminName1":"Scotland"},"findNearbyPlaceNameJSON?lat=55.858502&lng=-4.293679999999995&radius=50":{"geonames":[{"countryId":"2635167","adminCode1":"SCT","countryName":"United Kingdom","fclName":"city, village,...","countryCode":"GB","lng":"-4.28585","fcodeName":"section of populated place","distance":"0.68315","toponymName":"Finnieston","fcl":"P","name":"Finnieston","fcode":"PPLX","geonameId":2649405,"lat":"55.86277","adminName1":"Scotland","population":0},{"countryId":"2635167","adminCode1":"SCT","countryName":"United Kingdom","fclName":"city, village,...","countryCode":"GB","lng":"-4.31241","fcodeName":"populated place","distance":"1.28671","toponymName":"Govan","fcl":"P","name":"Govan","fcode":"PPL","geonameId":2648258,"lat":"55.86326","adminName1":"Scotland","population":0},{"countryId":"2635167","adminCode1":"SCT","countryName":"United Kingdom","fclName":"city, village,...","countryCode":"GB","lng":"-4.27164","fcodeName":"populated locality","distance":"1.40184","toponymName":"Stobcross (historical)","fcl":"P","name":"Stobcross (historical)","fcode":"PPLL","geonameId":9613549,"lat":"55.86071","adminName1":"Scotland","population":0},{"countryId":"2635167","adminCode1":"SCT","countryName":"United Kingdom","fclName":"city, village,...","countryCode":"GB","lng":"-4.27348","fcodeName":"section of populated place","distance":"1.42588","toponymName":"Kinning Park","fcl":"P","name":"Kinning Park","fcode":"PPLX","geonameId":2645371,"lat":"55.8526","adminName1":"Scotland","population":0},{"countryId":"2635167","adminCode1":"SCT","countryName":"United Kingdom","fclName":"city, village,...","countryCode":"GB","lng":"-4.30566","fcodeName":"populated place","distance":"1.55681","toponymName":"Partick","fcl":"P","name":"Partick","fcode":"PPL","geonameId":2640594,"lat":"55.87075","adminName1":"Scotland","population":0},{"countryId":"2635167","adminCode1":"SCT","countryName":"United Kingdom","fclName":"city, village,...","countryCode":"GB","lng":"-4.28297","fcodeName":"populated place","distance":"1.79119","toponymName":"Pollokshields","fcl":"P","name":"Pollokshields","fcode":"PPL","geonameId":7535667,"lat":"55.84359","adminName1":"Scotland","population":0},{"countryId":"2635167","adminCode1":"SCT","countryName":"United Kingdom","fclName":"city, village,...","countryCode":"GB","lng":"-4.26313","fcodeName":"section of populated place","distance":"1.98109","toponymName":"Tradeston","fcl":"P","name":"Tradeston","fcode":"PPLX","geonameId":2635573,"lat":"55.85387","adminName1":"Scotland","population":0},{"countryId":"2635167","adminCode1":"SCT","countryName":"United Kingdom","fclName":"city, village,...","countryCode":"GB","lng":"-4.25763","fcodeName":"seat of a second-order administrative division","distance":"2.37545","toponymName":"Glasgow","fcl":"P","name":"Glasgow","fcode":"PPLA2","geonameId":2648579,"lat":"55.86515","adminName1":"Scotland","population":610268},{"countryId":"2635167","adminCode1":"SCT","countryName":"United Kingdom","fclName":"city, village,...","countryCode":"GB","lng":"-4.33059","fcodeName":"historical populated place","distance":"2.39684","toponymName":"Linthouse","fcl":"P","name":"Linthouse","fcode":"PPLH","geonameId":2644438,"lat":"55.86421","adminName1":"Scotland","population":0},{"countryId":"2635167","adminCode1":"SCT","countryName":"United Kingdom","fclName":"city, village,...","countryCode":"GB","lng":"-4.33089","fcodeName":"section of populated place","distance":"2.83271","toponymName":"Whiteinch","fcl":"P","name":"Whiteinch","fcode":"PPLX","geonameId":2634084,"lat":"55.87298","adminName1":"Scotland","population":0}]},"countrySubdivisionJSON?lat=51.9281666270705&lng=-8.395845907284524&level=4":{"distance":0,"adminCode1":"M","countryName":"Ireland","countryCode":"IE","codes":[{"code":"M","type":"ISO3166-2"}],"adminName1":"Munster"},"findNearbyPlaceNameJSON?lat=51.9281666270705&lng=-8.395845907284524&radius=50":{"geonames":[{"countryId":"2963597","adminCode1":"M","countryName":"Ireland","fclName":"city, village,...","countryCode":"IE","lng":"-8.38917","fcodeName":"populated place","distance":"0.50023","toponymName":"Riverstown","fcl":"P","name":"Riverstown","fcode":"PPL","geonameId":2961791,"lat":"51.92639","adminName1":"Munster","population":0},{"countryId":"2963597","adminCode1":"M","countryName":"Ireland","fclName":"city, village,...","countryCode":"IE","lng":"-8.38639","fcodeName":"populated place","distance":"1.00061","toponymName":"Sallybrook","fcl":"P","name":"Sallybrook","fcode":"PPL","geonameId":2961606,"lat":"51.935","adminName1":"Munster","population":0},{"countryId":"2963597","adminCode1":"M","countryName":"Ireland","fclName":"city, village,...","countryCode":"IE","lng":"-8.37861","fcodeName":"populated place","distance":"1.36052","toponymName":"Brooklodge","fcl":"P","name":"Brooklodge","fcode":"PPL","geonameId":2965968,"lat":"51.93417","adminName1":"Munster","population":0},{"countryId":"2963597","adminCode1":"M","countryName":"Ireland","fclName":"city, village,...","countryCode":"IE","lng":"-8.39972","fcodeName":"populated place","distance":"1.39798","toponymName":"Glanmire","fcl":"P","name":"Glanmire","fcode":"PPL","geonameId":2964114,"lat":"51.91583","adminName1":"Munster","population":0},{"countryId":"2963597","adminCode1":"M","countryName":"Ireland","fclName":"city, village,...","countryCode":"IE","lng":"-8.38667","fcodeName":"populated place","distance":"1.48259","toponymName":"Ballinglanna","fcl":"P","name":"Ballinglanna","fcode":"PPL","geonameId":3299464,"lat":"51.91611","adminName1":"Munster","population":0},{"countryId":"2963597","adminCode1":"M","countryName":"Ireland","fclName":"city, village,...","countryCode":"IE","lng":"-8.37972","fcodeName":"populated place","distance":"2.55311","toponymName":"Dunsland","fcl":"P","name":"Dunsland","fcode":"PPL","geonameId":3299470,"lat":"51.9075","adminName1":"Munster","population":0},{"countryId":"2963597","adminCode1":"M","countryName":"Ireland","fclName":"city, village,...","countryCode":"IE","lng":"-8.36333","fcodeName":"populated place","distance":"2.70823","toponymName":"Caherlag","fcl":"P","name":"Caherlag","fcode":"PPL","geonameId":3299465,"lat":"51.91444","adminName1":"Munster","population":0},{"countryId":"2963597","countryName":"Ireland","fclName":"city, village,...","countryCode":"IE","lng":"-8.41081","fcodeName":"populated place","distance":"2.72203","toponymName":"Tivoli","fcl":"P","name":"Tivoli","fcode":"PPL","geonameId":7869988,"lat":"51.90552","adminName1":"","population":0},{"countryId":"2963597","adminCode1":"M","countryName":"Ireland","fclName":"city, village,...","countryCode":"IE","lng":"-8.37611","fcodeName":"populated place","distance":"2.83685","toponymName":"Butlerstown","fcl":"P","name":"Butlerstown","fcode":"PPL","geonameId":3299450,"lat":"51.95056","adminName1":"Munster","population":0},{"countryId":"2963597","adminCode1":"M","countryName":"Ireland","fclName":"city, village,...","countryCode":"IE","lng":"-8.36111","fcodeName":"populated place","distance":"3.05161","toponymName":"Glounthaune","fcl":"P","name":"Glounthaune","fcode":"PPL","geonameId":3299471,"lat":"51.91111","adminName1":"Munster","population":0}]},"countrySubdivisionJSON?lat=52.28622724825684&lng=-9.673296165466354&level=4":{"distance":0,"adminCode1":"M","countryName":"Ireland","countryCode":"IE","codes":[{"code":"M","type":"ISO3166-2"}],"adminName1":"Munster"},"findNearbyPlaceNameJSON?lat=52.28622724825684&lng=-9.673296165466354&radius=50":{"geonames":[{"countryId":"2963597","adminCode1":"M","countryName":"Ireland","fclName":"city, village,...","countryCode":"IE","lng":"-9.68083","fcodeName":"populated place","distance":"0.72255","toponymName":"Muing","fcl":"P","name":"Muing","fcode":"PPL","geonameId":3291057,"lat":"52.28167","adminName1":"Munster","population":0},{"countryId":"2963597","adminCode1":"M","countryName":"Ireland","fclName":"city, village,...","countryCode":"IE","lng":"-9.65583","fcodeName":"populated place","distance":"1.25346","toponymName":"Knockawaddra","fcl":"P","name":"Knockawaddra","fcode":"PPL","geonameId":3291055,"lat":"52.28972","adminName1":"Munster","population":0},{"countryId":"2963597","adminCode1":"M","countryName":"Ireland","fclName":"city, village,...","countryCode":"IE","lng":"-9.66194","fcodeName":"populated place","distance":"1.71272","toponymName":"Ballinorig","fcl":"P","name":"Ballinorig","fcode":"PPL","geonameId":3291059,"lat":"52.2725","adminName1":"Munster","population":0},{"countryId":"2963597","adminCode1":"M","countryName":"Ireland","fclName":"city, village,...","countryCode":"IE","lng":"-9.7","fcodeName":"populated place","distance":"2.3808","toponymName":"Listellick","fcl":"P","name":"Listellick","fcode":"PPL","geonameId":2962866,"lat":"52.3","adminName1":"Munster","population":0},{"countryId":"2963597","adminCode1":"M","countryName":"Ireland","fclName":"city, village,...","countryCode":"IE","lng":"-9.67472","fcodeName":"populated locality","distance":"2.3949","toponymName":"Clashlehane Bridge","fcl":"P","name":"Clashlehane Bridge","fcode":"PPLL","geonameId":3291061,"lat":"52.26472","adminName1":"Munster","population":0},{"countryId":"2963597","adminCode1":"M","countryName":"Ireland","fclName":"city, village,...","countryCode":"IE","lng":"-9.70264","fcodeName":"seat of a second-order administrative division","distance":"2.66601","toponymName":"Tralee","fcl":"P","name":"Tralee","fcode":"PPLA2","geonameId":2961123,"lat":"52.27042","adminName1":"Munster","population":22941},{"countryId":"2963597","adminCode1":"M","countryName":"Ireland","fclName":"city, village,...","countryCode":"IE","lng":"-9.65861","fcodeName":"populated place","distance":"3.0565","toponymName":"Caherbreagh","fcl":"P","name":"Caherbreagh","fcode":"PPL","geonameId":3291066,"lat":"52.26028","adminName1":"Munster","population":0},{"countryId":"2963597","adminCode1":"M","countryName":"Ireland","fclName":"city, village,...","countryCode":"IE","lng":"-9.61944","fcodeName":"populated place","distance":"3.70217","toponymName":"Glendiff","fcl":"P","name":"Glendiff","fcode":"PPL","geonameId":3291056,"lat":"52.29028","adminName1":"Munster","population":0},{"countryId":"2963597","adminCode1":"M","countryName":"Ireland","fclName":"city, village,...","countryCode":"IE","lng":"-9.70806","fcodeName":"populated place","distance":"3.76117","toponymName":"Belmont","fcl":"P","name":"Belmont","fcode":"PPL","geonameId":3291060,"lat":"52.26","adminName1":"Munster","population":0},{"countryId":"2963597","adminCode1":"M","countryName":"Ireland","fclName":"city, village,...","countryCode":"IE","lng":"-9.60917","fcodeName":"populated place","distance":"4.44108","toponymName":"Gortnaleaha","fcl":"P","name":"Gortnaleaha","fcode":"PPL","geonameId":3291322,"lat":"52.27944","adminName1":"Munster","population":0}]},"countrySubdivisionJSON?lat=43.64725809999999&lng=-79.38695089999999&level=4":{"adminName2":"Toronto county","adminCode2":"8133394","distance":0,"adminCode1":"08","countryName":"Canada","countryCode":"CA","codes":[{"code":"08","type":"FIPS10-4"},{"code":"ON","type":"ISO3166-2"}],"adminName1":"Ontario"},"findNearbyPlaceNameJSON?lat=43.64725809999999&lng=-79.38695089999999&radius=50":{"geonames":[{"countryId":"6251999","adminCode1":"08","countryName":"Canada","fclName":"city, village,...","countryCode":"CA","lng":"-79.39081","fcodeName":"populated place","distance":"0.31976","toponymName":"The Entertainment District","fcl":"P","name":"The Entertainment District","fcode":"PPL","geonameId":7870793,"lat":"43.64791","adminName1":"Ontario","population":0},{"countryId":"6251999","adminCode1":"08","countryName":"Canada","fclName":"city, village,...","countryCode":"CA","lng":"-79.3829","fcodeName":"section of populated place","distance":"0.45558","toponymName":"Downtown Toronto","fcl":"P","name":"Downtown Toronto","fcode":"PPLX","geonameId":6167863,"lat":"43.65011","adminName1":"Ontario","population":0},{"countryId":"6251999","adminCode1":"08","countryName":"Canada","fclName":"city, village,...","countryCode":"CA","lng":"-79.38094","fcodeName":"populated place","distance":"0.48505","toponymName":"Financial District","fcl":"P","name":"Financial District","fcode":"PPL","geonameId":7870795,"lat":"43.64713","adminName1":"Ontario","population":0},{"countryId":"6251999","adminCode1":"08","countryName":"Canada","fclName":"city, village,...","countryCode":"CA","lng":"-79.38206","fcodeName":"populated place","distance":"0.49788","toponymName":"Old Toronto","fcl":"P","name":"Old Toronto","fcode":"PPL","geonameId":8436019,"lat":"43.64999","adminName1":"Ontario","population":0},{"countryId":"6251999","adminCode1":"08","countryName":"Canada","fclName":"city, village,...","countryCode":"CA","lng":"-79.39249","fcodeName":"populated place","distance":"0.74379","toponymName":"Grange Park","fcl":"P","name":"Grange Park","fcode":"PPL","geonameId":7870799,"lat":"43.65261","adminName1":"Ontario","population":0},{"countryId":"6251999","adminCode1":"08","countryName":"Canada","fclName":"city, village,...","countryCode":"CA","lng":"-79.39725","fcodeName":"populated place","distance":"0.92209","toponymName":"Chinatown","fcl":"P","name":"Chinatown","fcode":"PPL","geonameId":7870785,"lat":"43.65086","adminName1":"Ontario","population":0},{"countryId":"6251999","adminCode1":"08","countryName":"Canada","fclName":"city, village,...","countryCode":"CA","lng":"-79.383","fcodeName":"populated place","distance":"0.99469","toponymName":"Harbourfront","fcl":"P","name":"Harbourfront","fcode":"PPL","geonameId":7870801,"lat":"43.63878","adminName1":"Ontario","population":0},{"countryId":"6251999","adminCode1":"08","countryName":"Canada","fclName":"city, village,...","countryCode":"CA","lng":"-79.39879","fcodeName":"populated place","distance":"1.01485","toponymName":"Fashion District","fcl":"P","name":"Fashion District","fcode":"PPL","geonameId":7870797,"lat":"43.64418","adminName1":"Ontario","population":0},{"countryId":"6251999","adminCode1":"08","countryName":"Canada","fclName":"city, village,...","countryCode":"CA","lng":"-79.39326","fcodeName":"populated place","distance":"1.08241","toponymName":"Baldwin Village","fcl":"P","name":"Baldwin Village","fcode":"PPL","geonameId":7870787,"lat":"43.65586","adminName1":"Ontario","population":0},{"countryId":"6251999","adminCode1":"08","countryName":"Canada","fclName":"city, village,...","countryCode":"CA","lng":"-79.39708","fcodeName":"populated place","distance":"1.1562","toponymName":"CityPlace","fcl":"P","name":"CityPlace","fcode":"PPL","geonameId":7870784,"lat":"43.6399","adminName1":"Ontario","population":0}]},"countrySubdivisionJSON?lat=-34.6037232&lng=-58.38159310000003&level=4":{"distance":0,"adminCode1":"07","countryName":"Argentina","countryCode":"AR","codes":[{"code":"07","type":"FIPS10-4"},{"code":"C","type":"ISO3166-2"}],"adminName1":"Buenos Aires F.D."},"findNearbyPlaceNameJSON?lat=-34.6037232&lng=-58.38159310000003&radius=50":{"geonames":[{"countryId":"3865483","adminCode1":"07","countryName":"Argentina","fclName":"city, village,...","countryCode":"AR","lng":"-58.37607","fcodeName":"section of populated place","distance":"0.52687","toponymName":"San Nicolas","fcl":"P","name":"San Nicolas","fcode":"PPLX","geonameId":6693229,"lat":"-34.60502","adminName1":"Buenos Aires F.D.","population":0},{"countryId":"3865483","adminCode1":"07","countryName":"Argentina","fclName":"city, village,...","countryCode":"AR","lng":"-58.38341","fcodeName":"section of populated place","distance":"0.97374","toponymName":"Montserrat","fcl":"P","name":"Montserrat","fcode":"PPLX","geonameId":3430570,"lat":"-34.61237","adminName1":"Buenos Aires F.D.","population":0},{"countryId":"3865483","adminCode1":"07","countryName":"Argentina","fclName":"city, village,...","countryCode":"AR","lng":"-58.37723","fcodeName":"capital of a political entity","distance":"1.11965","toponymName":"Buenos Aires","fcl":"P","name":"Buenos Aires","fcode":"PPLC","geonameId":3435910,"lat":"-34.61315","adminName1":"Buenos Aires F.D.","population":13076300},{"countryId":"3865483","adminCode1":"07","countryName":"Argentina","fclName":"city, village,...","countryCode":"AR","lng":"-58.39225","fcodeName":"section of populated place","distance":"1.16719","toponymName":"Congreso","fcl":"P","name":"Congreso","fcode":"PPLX","geonameId":3435259,"lat":"-34.60948","adminName1":"Buenos Aires F.D.","population":0},{"countryId":"3865483","adminCode1":"07","countryName":"Argentina","fclName":"city, village,...","countryCode":"AR","lng":"-58.39766","fcodeName":"section of populated place","distance":"1.64518","toponymName":"Balvanera","fcl":"P","name":"Balvanera","fcode":"PPLX","geonameId":6693228,"lat":"-34.61032","adminName1":"Buenos Aires F.D.","population":0},{"countryId":"3865483","adminCode1":"07","countryName":"Argentina","fclName":"city, village,...","countryCode":"AR","lng":"-58.36186","fcodeName":"section of populated place","distance":"1.91752","toponymName":"Puerto Madero","fcl":"P","name":"Puerto Madero","fcode":"PPLX","geonameId":3429760,"lat":"-34.60944","adminName1":"Buenos Aires F.D.","population":0},{"countryId":"3865483","adminCode1":"07","countryName":"Argentina","fclName":"city, village,...","countryCode":"AR","lng":"-58.37122","fcodeName":"section of populated place","distance":"2.04102","toponymName":"San Telmo","fcl":"P","name":"San Telmo","fcode":"PPLX","geonameId":3428113,"lat":"-34.62","adminName1":"Buenos Aires F.D.","population":0},{"countryId":"3865483","adminCode1":"07","countryName":"Argentina","fclName":"city, village,...","countryCode":"AR","lng":"-58.38333","fcodeName":"section of populated place","distance":"2.26754","toponymName":"Retiro","fcl":"P","name":"Retiro","fcode":"PPLX","geonameId":3429576,"lat":"-34.58333","adminName1":"Buenos Aires F.D.","population":38635},{"countryId":"3865483","adminCode1":"07","countryName":"Argentina","fclName":"city, village,...","countryCode":"AR","lng":"-58.38633","fcodeName":"section of populated place","distance":"2.50181","toponymName":"Constitución","fcl":"P","name":"Constitución","fcode":"PPLX","geonameId":3435257,"lat":"-34.62593","adminName1":"Buenos Aires F.D.","population":0},{"countryId":"3865483","adminCode1":"07","countryName":"Argentina","fclName":"city, village,...","countryCode":"AR","lng":"-58.40808","fcodeName":"section of populated place","distance":"2.50539","toponymName":"Once","fcl":"P","name":"Once","fcode":"PPLX","geonameId":3430291,"lat":"-34.60923","adminName1":"Buenos Aires F.D.","population":0}]},"countrySubdivisionJSON?lat=51.900244103718194&lng=-8.402462304229743&level=4":{"distance":0,"adminCode1":"M","countryName":"Ireland","countryCode":"IE","codes":[{"code":"M","type":"ISO3166-2"}],"adminName1":"Munster"},"findNearbyPlaceNameJSON?lat=51.900244103718194&lng=-8.402462304229743&radius=50":{"geonames":[{"countryId":"2963597","adminCode1":"M","countryName":"Ireland","fclName":"city, village,...","countryCode":"IE","lng":"-8.41","fcodeName":"populated place","distance":"0.6356","toponymName":"Blackrock","fcl":"P","name":"Blackrock","fcode":"PPL","geonameId":2966132,"lat":"51.89694","adminName1":"Munster","population":0},{"countryId":"2963597","countryName":"Ireland","fclName":"city, village,...","countryCode":"IE","lng":"-8.41081","fcodeName":"populated place","distance":"0.82118","toponymName":"Tivoli","fcl":"P","name":"Tivoli","fcode":"PPL","geonameId":7869988,"lat":"51.90552","adminName1":"","population":0},{"countryId":"2963597","adminCode1":"M","countryName":"Ireland","fclName":"city, village,...","countryCode":"IE","lng":"-8.40417","fcodeName":"section of populated place","distance":"1.26888","toponymName":"Ballinure","fcl":"P","name":"Ballinure","fcode":"PPLX","geonameId":3286703,"lat":"51.88889","adminName1":"Munster","population":0},{"countryId":"2963597","adminCode1":"M","countryName":"Ireland","fclName":"city, village,...","countryCode":"IE","lng":"-8.4225","fcodeName":"populated place","distance":"1.50042","toponymName":"Loumore","fcl":"P","name":"Loumore","fcode":"PPL","geonameId":3299463,"lat":"51.90556","adminName1":"Munster","population":0},{"countryId":"2963597","countryName":"Ireland","fclName":"city, village,...","countryCode":"IE","lng":"-8.42634","fcodeName":"populated place","distance":"1.68579","toponymName":"Silversprings","fcl":"P","name":"Silversprings","fcode":"PPL","geonameId":7838927,"lat":"51.90361","adminName1":"","population":0},{"countryId":"2963597","adminCode1":"M","countryName":"Ireland","fclName":"city, village,...","countryCode":"IE","lng":"-8.39972","fcodeName":"populated place","distance":"1.74473","toponymName":"Glanmire","fcl":"P","name":"Glanmire","fcode":"PPL","geonameId":2964114,"lat":"51.91583","adminName1":"Munster","population":0},{"countryId":"2963597","adminCode1":"M","countryName":"Ireland","fclName":"city, village,...","countryCode":"IE","lng":"-8.37972","fcodeName":"populated place","distance":"1.76105","toponymName":"Dunsland","fcl":"P","name":"Dunsland","fcode":"PPL","geonameId":3299470,"lat":"51.9075","adminName1":"Munster","population":0},{"countryId":"2963597","adminCode1":"M","countryName":"Ireland","fclName":"city, village,...","countryCode":"IE","lng":"-8.38667","fcodeName":"populated place","distance":"2.07327","toponymName":"Ballinglanna","fcl":"P","name":"Ballinglanna","fcode":"PPL","geonameId":3299464,"lat":"51.91611","adminName1":"Munster","population":0},{"countryId":"2963597","countryName":"Ireland","fclName":"city, village,...","countryCode":"IE","lng":"-8.42257","fcodeName":"populated place","distance":"2.30329","toponymName":"Mahon","fcl":"P","name":"Mahon","fcode":"PPL","geonameId":7869986,"lat":"51.8837","adminName1":"","population":0},{"countryId":"2963597","adminCode1":"M","countryName":"Ireland","fclName":"city, village,...","countryCode":"IE","lng":"-8.43528","fcodeName":"populated place","distance":"2.39631","toponymName":"Ballintemple","fcl":"P","name":"Ballintemple","fcode":"PPL","geonameId":2966707,"lat":"51.89306","adminName1":"Munster","population":0}]},"countrySubdivisionJSON?lat=53.3945735&lng=-6.756922700000018&level=4":{"distance":0,"adminCode1":"L","countryName":"Ireland","countryCode":"IE","codes":[{"code":"L","type":"ISO3166-2"}],"adminName1":"Leinster"},"findNearbyPlaceNameJSON?lat=53.3945735&lng=-6.756922700000018&radius=50":{"geonames":[{"countryId":"2963597","adminCode1":"L","countryName":"Ireland","fclName":"city, village,...","countryCode":"IE","lng":"-6.75861","fcodeName":"populated place","distance":"0.20469","toponymName":"Newtown","fcl":"P","name":"Newtown","fcode":"PPL","geonameId":2962240,"lat":"53.39611","adminName1":"Leinster","population":0},{"countryId":"2963597","adminCode1":"L","countryName":"Ireland","fclName":"city, village,...","countryCode":"IE","lng":"-6.78611","fcodeName":"populated locality","distance":"2.71706","toponymName":"Hortland","fcl":"P","name":"Hortland","fcode":"PPLL","geonameId":3314895,"lat":"53.3775","adminName1":"Leinster","population":0},{"countryId":"2963597","adminCode1":"L","countryName":"Ireland","fclName":"city, village,...","countryCode":"IE","lng":"-6.73167","fcodeName":"populated place","distance":"2.8502","toponymName":"Tirmoghan Common","fcl":"P","name":"Tirmoghan Common","fcode":"PPL","geonameId":3314849,"lat":"53.37389","adminName1":"Leinster","population":0},{"countryId":"2963597","adminCode1":"L","countryName":"Ireland","fclName":"city, village,...","countryCode":"IE","lng":"-6.74056","fcodeName":"populated place","distance":"2.97431","toponymName":"Nicholastown","fcl":"P","name":"Nicholastown","fcode":"PPL","geonameId":3314844,"lat":"53.41944","adminName1":"Leinster","population":0},{"countryId":"2963597","adminCode1":"L","countryName":"Ireland","fclName":"city, village,...","countryCode":"IE","lng":"-6.76778","fcodeName":"populated place","distance":"3.27915","toponymName":"Newtown","fcl":"P","name":"Newtown","fcode":"PPL","geonameId":3314847,"lat":"53.36583","adminName1":"Leinster","population":0},{"countryId":"2963597","adminCode1":"L","countryName":"Ireland","fclName":"city, village,...","countryCode":"IE","lng":"-6.80611","fcodeName":"populated locality","distance":"3.32726","toponymName":"Dysart","fcl":"P","name":"Dysart","fcode":"PPLL","geonameId":3315437,"lat":"53.38917","adminName1":"Leinster","population":0},{"countryId":"2963597","adminCode1":"L","countryName":"Ireland","fclName":"city, village,...","countryCode":"IE","lng":"-6.79028","fcodeName":"populated place","distance":"3.33463","toponymName":"Cloncurry","fcl":"P","name":"Cloncurry","fcode":"PPL","geonameId":2965383,"lat":"53.41694","adminName1":"Leinster","population":0},{"countryId":"2963597","adminCode1":"L","countryName":"Ireland","fclName":"city, village,...","countryCode":"IE","lng":"-6.71028","fcodeName":"populated place","distance":"3.7742","toponymName":"Ballybrack","fcl":"P","name":"Ballybrack","fcode":"PPL","geonameId":3314850,"lat":"53.37528","adminName1":"Leinster","population":0},{"countryId":"2963597","adminCode1":"L","countryName":"Ireland","fclName":"city, village,...","countryCode":"IE","lng":"-6.70056","fcodeName":"populated place","distance":"4.24678","toponymName":"Boycetown","fcl":"P","name":"Boycetown","fcode":"PPL","geonameId":3314894,"lat":"53.4125","adminName1":"Leinster","population":0},{"countryId":"2963597","adminCode1":"L","countryName":"Ireland","fclName":"city, village,...","countryCode":"IE","lng":"-6.81028","fcodeName":"populated place","distance":"4.31711","toponymName":"Ballyearn","fcl":"P","name":"Ballyearn","fcode":"PPL","geonameId":3314841,"lat":"53.41667","adminName1":"Leinster","population":0}]},"countrySubdivisionJSON?lat=30.330389&lng=-81.646866&level=4":{"adminName2":"Duval County","adminCode2":"031","distance":0,"adminCode1":"FL","countryName":"United States","countryCode":"US","codes":[{"code":"12","type":"FIPS10-4"},{"code":"FL","type":"ISO3166-2"}],"adminName1":"Florida"},"findNearbyPlaceNameJSON?lat=30.330389&lng=-81.646866&radius=50":{"geonames":[{"countryId":"6252001","adminCode1":"FL","countryName":"United States","fclName":"city, village,...","countryCode":"US","lng":"-81.65565","fcodeName":"seat of a second-order administrative division","distance":"0.86792","toponymName":"Jacksonville","fcl":"P","name":"Jacksonville","fcode":"PPLA2","geonameId":4160021,"lat":"30.33218","adminName1":"Florida","population":821784},{"countryId":"6252001","adminCode1":"FL","countryName":"United States","fclName":"city, village,...","countryCode":"US","lng":"-81.65343","fcodeName":"populated place","distance":"1.82073","toponymName":"Springfield","fcl":"P","name":"Springfield","fcode":"PPL","geonameId":4173893,"lat":"30.34579","adminName1":"Florida","population":0},{"countryId":"6252001","adminCode1":"FL","countryName":"United States","fclName":"city, village,...","countryCode":"US","lng":"-81.64565","fcodeName":"populated place","distance":"2.14453","toponymName":"South Jacksonville","fcl":"P","name":"South Jacksonville","fcode":"PPL","geonameId":4173473,"lat":"30.31107","adminName1":"Florida","population":0},{"countryId":"6252001","adminCode1":"FL","countryName":"United States","fclName":"city, village,...","countryCode":"US","lng":"-81.65982","fcodeName":"populated place","distance":"2.39787","toponymName":"San Marco","fcl":"P","name":"San Marco","fcode":"PPL","geonameId":4171814,"lat":"30.31191","adminName1":"Florida","population":0},{"countryId":"6252001","adminCode1":"FL","countryName":"United States","fclName":"city, village,...","countryCode":"US","lng":"-81.67454","fcodeName":"populated place","distance":"2.76662","toponymName":"Brooklyn","fcl":"P","name":"Brooklyn","fcode":"PPL","geonameId":4148971,"lat":"30.32357","adminName1":"Florida","population":0},{"countryId":"6252001","adminCode1":"FL","countryName":"United States","fclName":"city, village,...","countryCode":"US","lng":"-81.63565","fcodeName":"populated place","distance":"2.96072","toponymName":"Saint Nicholas","fcl":"P","name":"Saint Nicholas","fcode":"PPL","geonameId":4171428,"lat":"30.30552","adminName1":"Florida","population":0},{"countryId":"6252001","adminCode1":"FL","countryName":"United States","fclName":"city, village,...","countryCode":"US","lng":"-81.64148","fcodeName":"populated place","distance":"3.38213","toponymName":"Philips","fcl":"P","name":"Philips","fcode":"PPL","geonameId":4168315,"lat":"30.30024","adminName1":"Florida","population":0},{"countryId":"6252001","adminCode1":"FL","countryName":"United States","fclName":"city, village,...","countryCode":"US","lng":"-81.65871","fcodeName":"populated place","distance":"3.38328","toponymName":"Brentwood","fcl":"P","name":"Brentwood","fcode":"PPL","geonameId":4148804,"lat":"30.35913","adminName1":"Florida","population":0},{"countryId":"6252001","adminCode1":"FL","countryName":"United States","fclName":"city, village,...","countryCode":"US","lng":"-81.67787","fcodeName":"populated place","distance":"3.39121","toponymName":"College Park","fcl":"P","name":"College Park","fcode":"PPL","geonameId":4151531,"lat":"30.34496","adminName1":"Florida","population":0},{"countryId":"6252001","adminCode1":"FL","countryName":"United States","fclName":"city, village,...","countryCode":"US","lng":"-81.63259","fcodeName":"populated place","distance":"3.52554","toponymName":"Talleyrand","fcl":"P","name":"Talleyrand","fcode":"PPL","geonameId":4174733,"lat":"30.35968","adminName1":"Florida","population":0}]},"countrySubdivisionJSON?lat=51.526403&lng=-0.078028&level=4":{"adminCode3":"E8","adminName2":"Greater London","adminName3":"Hackney","adminCode2":"GLA","distance":0,"adminCode1":"ENG","countryName":"United Kingdom","countryCode":"GB","codes":[{"code":"ENG","type":"ISO3166-2"}],"adminName1":"England"},"findNearbyPlaceNameJSON?lat=51.526403&lng=-0.078028&radius=50":{"geonames":[{"countryId":"2635167","adminCode1":"ENG","countryName":"United Kingdom","fclName":"city, village,...","countryCode":"GB","lng":"-0.07695","fcodeName":"populated place","distance":"0.16459","toponymName":"Shoreditch","fcl":"P","name":"Shoreditch","fcode":"PPL","geonameId":2637918,"lat":"51.52509","adminName1":"England","population":0},{"countryId":"2635167","adminCode1":"ENG","countryName":"United Kingdom","fclName":"city, village,...","countryCode":"GB","lng":"-0.0851","fcodeName":"populated place","distance":"0.49124","toponymName":"Old Street","fcl":"P","name":"Old Street","fcode":"PPL","geonameId":6690594,"lat":"51.52623","adminName1":"England","population":0},{"countryId":"2635167","adminCode1":"ENG","countryName":"United Kingdom","fclName":"city, village,...","countryCode":"GB","lng":"-0.07167","fcodeName":"section of populated place","distance":"0.66409","toponymName":"Brick Lane","fcl":"P","name":"Brick Lane","fcode":"PPLX","geonameId":7302129,"lat":"51.52194","adminName1":"England","population":0},{"countryId":"2635167","adminCode1":"ENG","countryName":"United Kingdom","fclName":"city, village,...","countryCode":"GB","lng":"-0.07436","fcodeName":"section of populated place","distance":"0.73541","toponymName":"Spitalfields","fcl":"P","name":"Spitalfields","fcode":"PPLX","geonameId":2637221,"lat":"51.5202","adminName1":"England","population":0},{"countryId":"2635167","adminCode1":"ENG","countryName":"United Kingdom","fclName":"city, village,...","countryCode":"GB","lng":"-0.06109","fcodeName":"section of populated place","distance":"1.17884","toponymName":"Bethnal Green","fcl":"P","name":"Bethnal Green","fcode":"PPLX","geonameId":6690989,"lat":"51.52718","adminName1":"England","population":17590},{"countryId":"2635167","adminCode1":"ENG","countryName":"United Kingdom","fclName":"city, village,...","countryCode":"GB","lng":"-0.08841","fcodeName":"section of populated place","distance":"1.23718","toponymName":"Hoxton","fcl":"P","name":"Hoxton","fcode":"PPLX","geonameId":2646476,"lat":"51.53544","adminName1":"England","population":0},{"countryId":"2635167","adminCode1":"ENG","countryName":"United Kingdom","fclName":"city, village,...","countryCode":"GB","lng":"-0.09446","fcodeName":"section of populated place","distance":"1.35165","toponymName":"Barbican","fcl":"P","name":"Barbican","fcode":"PPLX","geonameId":6690593,"lat":"51.51988","adminName1":"England","population":4000},{"countryId":"2635167","adminCode1":"ENG","countryName":"United Kingdom","fclName":"city, village,...","countryCode":"GB","lng":"-0.06583","fcodeName":"section of populated place","distance":"1.63627","toponymName":"Whitechapel","fcl":"P","name":"Whitechapel","fcode":"PPLX","geonameId":2634112,"lat":"51.51382","adminName1":"England","population":0},{"countryId":"2635167","adminCode1":"ENG","countryName":"United Kingdom","fclName":"city, village,...","countryCode":"GB","lng":"-0.09184","fcodeName":"seat of a third-order administrative division","distance":"1.79254","toponymName":"City of London","fcl":"P","name":"City of London","fcode":"PPLA3","geonameId":2643741,"lat":"51.51279","adminName1":"England","population":7556900},{"countryId":"2635167","adminCode1":"ENG","countryName":"United Kingdom","fclName":"city, village,...","countryCode":"GB","lng":"-0.07669","fcodeName":"section of populated place","distance":"1.89334","toponymName":"Kingsland","fcl":"P","name":"Kingsland","fcode":"PPLX","geonameId":9257619,"lat":"51.5434","adminName1":"England","population":0}]},"countrySubdivisionJSON?lat=40.77646894414507&lng=-73.02582855224608&level=4":{"adminName2":"Suffolk County","adminCode2":"103","distance":0,"adminCode1":"NY","countryName":"United States","countryCode":"US","codes":[{"code":"36","type":"FIPS10-4"},{"code":"NY","type":"ISO3166-2"}],"adminName1":"New York"},